location_ID,country_ID,name,lon,lat
1,AF,Afghanistan,67.709953,33.93911
2,AL,Albania,20.168331,41.153332
3,DZ,Algeria,1.659626,28.033886
4,AS,American Samoa,-170.132217,-14.270972
5,AD,Andorra,1.601554,42.546245
6,AO,Angola,17.873887,-11.202692
7,AI,Anguilla,-63.068615,18.220554
8,AQ,Antarctica,-0.071389,-75.250973
9,AG,Antigua and Barbuda,-61.796428,17.060816
10,AR,Argentina,-63.616672,-38.416097
11,AM,Armenia,45.038189,40.069099
12,AW,Aruba,-69.968338,12.52111
13,AU,Australia,133.775136,-25.274398
14,AT,Austria,14.550072,47.516231
15,AZ,Azerbaijan,47.576927,40.143105
16,BS,Bahamas,-77.39628,25.03428
17,BH,Bahrain,50.637772,25.930414
18,BD,Bangladesh,90.356331,23.684994
19,BB,Barbados,-59.543198,13.193887
20,BY,Belarus,27.953389,53.709807
21,BE,Belgium,4.469936,50.503887
22,BZ,Belize,-88.49765,17.189877
23,BJ,Benin,2.315834,9.30769
24,BM,Bermuda,-64.75737,32.321384
25,BT,Bhutan,90.433601,27.514162
26,BO,Bolivia,-63.588653,-16.290154
27,BA,Bosnia and Herzegovina,17.679076,43.915886
28,BW,Botswana,24.684866,-22.328474
29,BV,Bouvet Island,3.413194,-54.423199
30,BR,Brazil,-51.92528,-14.235004
31,IO,British Indian Ocean Territory,71.876519,-6.343194
32,VG,British Virgin Islands,-64.639968,18.420695
33,BN,Brunei,114.727669,4.535277
34,BG,Bulgaria,25.48583,42.733883
35,BF,Burkina Faso,-1.561593,12.238333
36,BI,Burundi,29.918886,-3.373056
37,KH,Cambodia,104.990963,12.565679
38,CM,Cameroon,12.354722,7.369722
39,CA,Canada,-106.346771,56.130366
40,CV,Cape Verde,-24.013197,16.002082
41,KY,Cayman Islands,-80.566956,19.513469
42,CF,Central African Republic,20.939444,6.611111
43,TD,Chad,18.732207,15.454166
44,CL,Chile,-71.542969,-35.675147
45,CN,China,104.195397,35.86166
46,CX,Christmas Island,105.690449,-10.447525
47,CC,Cocos [Keeling] Islands,96.870956,-12.164165
48,CO,Colombia,-74.297333,4.570868
49,KM,Comoros,43.872219,-11.875001
50,CD,Congo [DRC],21.758664,-4.038333
51,CG,Congo [Republic],15.827659,-0.228021
52,CK,Cook Islands,-159.777671,-21.236736
53,CR,Costa Rica,-83.753428,9.748917
54,CI,Côte d'Ivoire,-5.54708,7.539989
55,HR,Croatia,15.2,45.1
56,CU,Cuba,-77.781167,21.521757
57,CY,Cyprus,33.429859,35.126413
58,CZ,Czech Republic,15.472962,49.817492
59,DK,Denmark,9.501785,56.26392
60,DJ,Djibouti,42.590275,11.825138
61,DM,Dominica,-61.370976,15.414999
62,DO,Dominican Republic,-70.162651,18.735693
63,EC,Ecuador,-78.183406,-1.831239
64,EG,Egypt,30.802498,26.820553
65,SV,El Salvador,-88.89653,13.794185
66,GQ,Equatorial Guinea,10.267895,1.650801
67,ER,Eritrea,39.782334,15.179384
68,EE,Estonia,25.013607,58.595272
69,ET,Ethiopia,40.489673,9.145
70,FK,Falkland Islands [Islas Malvinas],-59.523613,-51.796253
71,FO,Faroe Islands,-6.911806,61.892635
72,FJ,Fiji,179.414413,-16.578193
73,FI,Finland,25.748151,61.92411
74,FR,France,2.213749,46.227638
75,GF,French Guiana,-53.125782,3.933889
76,PF,French Polynesia,-149.406843,-17.679742
77,TF,French Southern Territories,69.348557,-49.280366
78,GA,Gabon,11.609444,-0.803689
79,GM,Gambia,-15.310139,13.443182
80,GZ,Gaza Strip,34.308825,31.354676
81,GE,Georgia,43.356892,42.315407
82,DE,Germany,10.451526,51.165691
83,GH,Ghana,-1.023194,7.946527
84,GI,Gibraltar,-5.345374,36.137741
85,GR,Greece,21.824312,39.074208
86,GL,Greenland,-42.604303,71.706936
87,GD,Grenada,-61.604171,12.262776
88,GP,Guadeloupe,-62.067641,16.995971
89,GU,Guam,144.793731,13.444304
90,GT,Guatemala,-90.230759,15.783471
91,GG,Guernsey,-2.585278,49.465691
92,GN,Guinea,-9.696645,9.945587
93,GW,Guinea-Bissau,-15.180413,11.803749
94,GY,Guyana,-58.93018,4.860416
95,HT,Haiti,-72.285215,18.971187
96,HM,Heard Island and McDonald Islands,73.504158,-53.08181
97,HN,Honduras,-86.241905,15.199999
98,HK,Hong Kong,114.109497,22.396428
99,HU,Hungary,19.503304,47.162494
100,IS,Iceland,-19.020835,64.963051
101,IN,India,78.96288,20.593684
102,ID,Indonesia,113.921327,-0.789275
103,IR,Iran,53.688046,32.427908
104,IQ,Iraq,43.679291,33.223191
105,IE,Ireland,-8.24389,53.41291
106,IM,Isle of Man,-4.548056,54.236107
107,IL,Israel,34.851612,31.046051
108,IT,Italy,12.56738,41.87194
109,JM,Jamaica,-77.297508,18.109581
110,JP,Japan,138.252924,36.204824
111,JE,Jersey,-2.13125,49.214439
112,JO,Jordan,36.238414,30.585164
113,KZ,Kazakhstan,66.923684,48.019573
114,KE,Kenya,37.906193,-0.023559
115,KI,Kiribati,-168.734039,-3.370417
116,XK,Kosovo,20.902977,42.602636
117,KW,Kuwait,47.481766,29.31166
118,KG,Kyrgyzstan,74.766098,41.20438
119,LA,Laos,102.495496,19.85627
120,LV,Latvia,24.603189,56.879635
121,LB,Lebanon,35.862285,33.854721
122,LS,Lesotho,28.233608,-29.609988
123,LR,Liberia,-9.429499,6.428055
124,LY,Libya,17.228331,26.3351
125,LI,Liechtenstein,9.555373,47.166
126,LT,Lithuania,23.881275,55.169438
127,LU,Luxembourg,6.129583,49.815273
128,MO,Macau,113.543873,22.198745
129,MK,Macedonia [FYROM],21.745275,41.608635
130,MG,Madagascar,46.869107,-18.766947
131,MW,Malawi,34.301525,-13.254308
132,MY,Malaysia,101.975766,4.210484
133,MV,Maldives,73.22068,3.202778
134,ML,Mali,-3.996166,17.570692
135,MT,Malta,14.375416,35.937496
136,MH,Marshall Islands,171.184478,7.131474
137,MQ,Martinique,-61.024174,14.641528
138,MR,Mauritania,-10.940835,21.00789
139,MU,Mauritius,57.552152,-20.348404
140,YT,Mayotte,45.166244,-12.8275
141,MX,Mexico,-102.552784,23.634501
142,FM,Micronesia,150.550812,7.425554
143,MD,Moldova,28.369885,47.411631
144,MC,Monaco,7.412841,43.750298
145,MN,Mongolia,103.846656,46.862496
146,ME,Montenegro,19.37439,42.708678
147,MS,Montserrat,-62.187366,16.742498
148,MA,Morocco,-7.09262,31.791702
149,MZ,Mozambique,35.529562,-18.665695
150,MM,Myanmar,95.956223,21.913965
151,NA,Namibia,18.49041,-22.95764
152,NR,Nauru,166.931503,-0.522778
153,NP,Nepal,84.124008,28.394857
154,NL,Netherlands,5.291266,52.132633
155,AN,Netherlands Antilles,-69.060087,12.226079
156,NC,New Caledonia,165.618042,-20.904305
157,NZ,New Zealand,174.885971,-40.900557
158,NI,Nicaragua,-85.207229,12.865416
159,NE,Niger,8.081666,17.607789
160,NG,Nigeria,8.675277,9.081999
161,NU,Niue,-169.867233,-19.054445
162,NF,Norfolk Island,167.954712,-29.040835
163,KP,North Korea,127.510093,40.339852
164,MP,Northern Mariana Islands,145.38469,17.33083
165,NO,Norway,8.468946,60.472024
166,OM,Oman,55.923255,21.512583
167,PK,Pakistan,69.345116,30.375321
168,PW,Palau,134.58252,7.51498
169,PS,Palestinian Territories,35.233154,31.952162
170,PA,Panama,-80.782127,8.537981
171,PG,Papua New Guinea,143.95555,-6.314993
172,PY,Paraguay,-58.443832,-23.442503
173,PE,Peru,-75.015152,-9.189967
174,PH,Philippines,121.774017,12.879721
175,PN,Pitcairn Islands,-127.439308,-24.703615
176,PL,Poland,19.145136,51.919438
177,PT,Portugal,-8.224454,39.399872
178,PR,Puerto Rico,-66.590149,18.220833
179,QA,Qatar,51.183884,25.354826
180,RE,Réunion,55.536384,-21.115141
181,RO,Romania,24.96676,45.943161
182,RU,Russia,105.318756,61.52401
183,RW,Rwanda,29.873888,-1.940278
184,SH,Saint Helena,-10.030696,-24.143474
185,KN,Saint Kitts and Nevis,-62.782998,17.357822
186,LC,Saint Lucia,-60.978893,13.909444
187,PM,Saint Pierre and Miquelon,-56.27111,46.941936
188,VC,Saint Vincent and the Grenadines,-61.287228,12.984305
189,WS,Samoa,-172.104629,-13.759029
190,SM,San Marino,12.457777,43.94236
191,ST,São Tomé and Príncipe,6.613081,0.18636
192,SA,Saudi Arabia,45.079162,23.885942
193,SN,Senegal,-14.452362,14.497401
194,RS,Serbia,21.005859,44.016521
195,SC,Seychelles,55.491977,-4.679574
196,SL,Sierra Leone,-11.779889,8.460555
197,SG,Singapore,103.819836,1.352083
198,SK,Slovakia,19.699024,48.669026
199,SI,Slovenia,14.995463,46.151241
200,SB,Solomon Islands,160.156194,-9.64571
201,SO,Somalia,46.199616,5.152149
202,ZA,South Africa,22.937506,-30.559482
203,GS,South Georgia and the South Sandwich Islands,-36.587909,-54.429579
204,KR,South Korea,127.766922,35.907757
205,ES,Spain,-3.74922,40.463667
206,LK,Sri Lanka,80.771797,7.873054
207,SD,Sudan,30.217636,12.862807
208,SR,Suriname,-56.027783,3.919305
209,SJ,Svalbard and Jan Mayen,23.670272,77.553604
210,SZ,Swaziland,31.465866,-26.522503
211,SE,Sweden,18.643501,60.128161
212,CH,Switzerland,8.227512,46.818188
213,SY,Syria,38.996815,34.802075
214,TW,Taiwan,120.960515,23.69781
215,TJ,Tajikistan,71.276093,38.861034
216,TZ,Tanzania,34.888822,-6.369028
217,TH,Thailand,100.992541,15.870032
218,TL,Timor-Leste,125.727539,-8.874217
219,TG,Togo,0.824782,8.619543
220,TK,Tokelau,-171.855881,-8.967363
221,TO,Tonga,-175.198242,-21.178986
222,TT,Trinidad and Tobago,-61.222503,10.691803
223,TN,Tunisia,9.537499,33.886917
224,TR,Turkey,35.243322,38.963745
225,TM,Turkmenistan,59.556278,38.969719
226,TC,Turks and Caicos Islands,-71.797928,21.694025
227,TV,Tuvalu,177.64933,-7.109535
228,UM,U.S. Minor Outlying Islands,,
229,VI,U.S. Virgin Islands,-64.896335,18.335765
230,UG,Uganda,32.290275,1.373333
231,UA,Ukraine,31.16558,48.379433
232,AE,United Arab Emirates,53.847818,23.424076
233,GB,United Kingdom,-3.435973,55.378051
234,US,USA,-95.712891,37.09024
235,UY,Uruguay,-55.765835,-32.522779
236,UZ,Uzbekistan,64.585262,41.377491
237,VU,Vanuatu,166.959158,-15.376706
238,VA,Vatican City,12.453389,41.902916
239,VE,Venezuela,-66.58973,6.42375
240,VN,Viet Nam,108.277199,14.058324
241,WF,Wallis and Futuna,-177.156097,-13.768752
242,WB,West Bank,35.383332,32
243,EH,Western Sahara,-12.885834,24.215527
244,YE,Yemen,48.516388,15.552727
245,ZM,Zambia,27.849332,-13.133897
246,ZW,Zimbabwe,29.154857,-19.015438
1067,DE,Dresden,13.7210676148814,51.0600336463379
1069,DE,Dresden,13.7389066401609,51.039558876083
1097,DE,Dresden,13.7439674110642,51.0667452412037
1099,DE,Dresden,13.8289798683304,51.0926193047084
1108,DE,Dresden,13.8289798683304,51.0926193047084
1109,DE,Dresden,13.7619645364861,51.1201009324663
1127,DE,Dresden,13.733347378178,51.0796304130158
1129,DE,Dresden,13.7274104697459,51.0967944759693
1139,DE,Dresden,13.6911443969423,51.0805574259239
1156,DE,Cossebaude,13.6233072524789,51.0666308149291
1157,DE,Dresden,13.6708047478723,51.0643076931977
1159,DE,Dresden,13.7006915581674,51.0426057654929
1169,DE,Dresden,13.669187770824,51.0402553993976
1187,DE,Dresden,13.7026657714036,51.0263802661785
1189,DE,Dresden,13.7045105691695,51.0139161289227
1217,DE,Dresden,13.7445163387362,51.0171437482078
1219,DE,Dresden,13.767050572669,51.0223236798061
1237,DE,Dresden,13.7995859170998,51.0175665126765
1239,DE,Dresden,13.7910680057092,51.0026829600855
1257,DE,Dresden,13.8159850373907,50.9967325356128
1259,DE,Dresden,13.8504009228778,50.9954059978924
1277,DE,Dresden,13.7996248266757,51.0358690261521
1279,DE,Dresden,13.829358598703,51.0262558292618
1307,DE,Dresden,13.7726271881428,51.054135498816
1309,DE,Dresden,13.7914262584064,51.0486489302583
1324,DE,Dresden,13.8565349336316,51.0657832255777
1326,DE,Dresden,13.8604932218226,51.0255377692464
1328,DE,Dresden,13.8604932218226,51.0255377692464
1445,DE,Radebeul,13.6432842540266,51.113631945926
1454,DE,Radeberg,13.9174778607087,51.1322204297425
1458,DE,Ottendorf-Okrilla,13.8458463274789,51.1806998157721
1465,DE,Langebrück,13.8529489368089,51.1391981640663
1468,DE,Reichenberg,13.6880862158881,51.1643597588491
1471,DE,Radeburg,13.7337932032249,51.2077931641187
1474,DE,Schönfeld-Weißig,13.9103529151579,51.0419834157698
1477,DE,Arnsdorf bei Dresden,13.985677697989,51.0920430235188
1478,DE,Weixdorf,13.7870919641968,51.1547881534152
1558,DE,Großenhain,13.5315731714366,51.2891145903037
1561,DE,Großenhain,13.6355869926486,51.2976909803264
1587,DE,Riesa,13.2733841506402,51.3026420079985
1589,DE,Riesa,13.3280500186448,51.2932197615145
1591,DE,Riesa,13.2476316657648,51.3185782906327
1594,DE,Riesa,13.2926021143652,51.2602843720622
1609,DE,Gröditz,13.4276267953258,51.3933055816495
1612,DE,Nünchritz,13.4107636804349,51.2971491835087
1616,DE,Strehla,13.233513371901,51.3627774545254
1619,DE,Zeithain,13.3175571414469,51.3693241709444
1623,DE,Lommatzsch,13.2973632027006,51.1651622463419
1640,DE,Coswig,13.580926302194,51.1387586054451
1662,DE,Meißen,13.4806311361759,51.1625202644459
1665,DE,Meißen,13.4489544026039,51.1362568421529
1683,DE,Nossen,13.3391720317397,51.0624700142114
1689,DE,Weinböhla,13.5635350452693,51.1835327936398
1705,DE,Freital,13.6382950999229,50.9981963286795
1723,DE,Wilsdruff,13.5134891000342,51.0284130540989
1728,DE,Bannewitz,13.7291369853809,50.9821082979879
1731,DE,Kreischa,13.7597324486117,50.9487885660998
1734,DE,Rabenau,13.6687274547601,50.9501368757072
1737,DE,Tharandt,13.5201035014231,50.966260898006
1738,DE,Colmnitz,13.5173401169574,50.9152518327972
1744,DE,Dippoldiswalde,13.654532984486,50.8921186026725
1762,DE,Schmiedeberg,13.617842237346,50.8161179074883
1768,DE,Glashütte,13.7645505179288,50.8559644594502
1773,DE,Altenberg,13.7227980508795,50.7701863367731
1774,DE,Höckendorf,13.5669529340257,50.8900816196631
1776,DE,Hermsdorf / Erzgebirge,13.6629879743292,50.7710497670944
1778,DE,Geising,13.8426295641397,50.7650698619091
1796,DE,Pirna,13.9720733354254,50.9371542514534
1809,DE,Heidenau,13.8449931917694,50.9455250223989
1814,DE,Bad Schandau,14.1966335474363,50.9019177714498
1816,DE,Bad Gottleuba,13.9656137628441,50.8298345463513
1819,DE,Berggießhübel,13.9803886523367,50.881784945979
1824,DE,Königstein / Sächsische Schweiz,14.0846392030175,50.8788255493473
1825,DE,Liebstadt,13.8775206298858,50.8604595275301
1827,DE,Graupa,13.9183895533832,50.9902835368459
1829,DE,Stadt Wehlen,14.0107984899764,50.9614393090612
1833,DE,Stolpen,14.0607858764795,51.0396792461695
1844,DE,Neustadt in Sachsen,14.2269924483085,51.0358209294172
1847,DE,Lohmen,14.0186319478249,50.9847555091057
1848,DE,Hohnstein,14.1438042484719,50.9788387434272
1855,DE,Sebnitz,14.2950195709521,50.9386350649986
1877,DE,Bischofswerda,14.2040378831612,51.1251633418218
1896,DE,Pulsnitz,14.0121693844565,51.1825198062342
1900,DE,Großröhrsdorf,14.03375842408,51.1446271877288
1904,DE,Neukirch / Lausitz,14.3276981957342,51.0804156053499
1906,DE,Bischofswerda,14.2077463894613,51.1871408473025
1909,DE,Großharthau,14.0820774273187,51.1085678698569
1917,DE,Kamenz,14.1116269099331,51.2705080744543
1920,DE,Deutschbaselitz,14.1565791843606,51.2693501643649
1936,DE,Königsbrück,13.9378853726551,51.292203230091
1945,DE,Ruhland,13.8797139131573,51.4253935388223
1968,DE,Senftenberg,14.0254798344899,51.5211335699322
1979,DE,Lauchhammer,13.7565048370695,51.5037294774548
1983,DE,Großräschen,14.0516552208333,51.5843420382583
1987,DE,Schwarzheide Niederlausitz,13.8569555558841,51.4828481886264
1990,DE,Ortrand,13.7347367836667,51.3853070881689
1993,DE,Schipkau,13.888210076256,51.5106519906471
1994,DE,Annahütte,13.9241987551606,51.5805372058737
1996,DE,Hosena,14.0337029399463,51.4590845820044
1998,DE,Klettwitz,13.88636824897,51.542571315541
2625,DE,Bautzen,14.4365868353327,51.185667039048
2627,DE,Weißenberg,14.5210189319672,51.1870144256967
2633,DE,Göda,14.3154107010876,51.1657477317624
2681,DE,Wilthen,14.4170717630233,51.0904987506152
2689,DE,Sohland an der Spree,14.4329030522057,51.0463985404994
2692,DE,Obergurig,14.4193340078608,51.1335042068282
2694,DE,Großdubrau,14.537486295937,51.263509210493
2699,DE,Königswartha,14.3502824523528,51.2909424449011
2708,DE,Löbau,14.6697479487381,51.0904319171108
2727,DE,Neugersdorf,14.612798599227,50.9740627941025
2730,DE,Ebersbach,14.6114148308632,51.0138119490906
2733,DE,Cunewalde,14.5281582649865,51.0993958694855
2736,DE,Oppach,14.5169828987071,51.0663183271913
2739,DE,Eibau,14.6550703961587,50.9920097089402
2742,DE,Neusalza-Spremberg,14.5457801319928,51.0313877036959
2744,DE,Oberoderwitz,14.701194489249,50.9697136268045
2747,DE,Herrnhut,14.7628115792269,51.010210638874
2748,DE,Bernstadt,14.8308235048218,51.0473782661179
2763,DE,Zittau,14.7868393700758,50.9087877353582
2779,DE,Großschönau,14.6820187352162,50.9021905899615
2782,DE,Seifhennersdorf,14.6088836183903,50.9360759135317
2785,DE,Olbersdorf,14.765271521555,50.8730183755607
2788,DE,Hirschfelde,14.8706601255607,50.9616452409436
2791,DE,Niederoderwitz,14.7455244809583,50.9542996431919
2794,DE,Leutersdorf,14.6622519416791,50.9475844742316
2796,DE,Jonsdorf,14.6936276890278,50.8528709218412
2797,DE,Oybin,14.7556214151635,50.8399718219569
2799,DE,Waltersdorf,14.6486158737805,50.8645532743721
2826,DE,Görlitz,14.9841912137216,51.1468640705067
2827,DE,Görlitz,14.9644336570507,51.131700588211
2828,DE,Görlitz,14.982757259718,51.169386005347
2829,DE,Görlitz,14.9314445596608,51.1793133227497
2894,DE,Reichenbach / Oberlausitz,14.7837970160583,51.1586210341871
2899,DE,Görlitz,14.9155163330416,51.0413623584693
2906,DE,Niesky,14.7199175414312,51.29686932838
2923,DE,Niesky,14.8877498791934,51.3029904192752
2929,DE,Rothenburg / Oberlausitz,14.9549174346342,51.3584395056961
2943,DE,Weißwasser,14.6231366648455,51.4455327569972
2953,DE,Bad Muskau,14.668792984739,51.5485347944777
2956,DE,Rietschen,14.8071789258513,51.4101443347418
2957,DE,Krauschwitz,14.7980059857637,51.4744440525675
2959,DE,Schleife,14.5263426599706,51.5231251115797
2977,DE,Hoyerswerda,14.2160050897591,51.4239640495388
2979,DE,Hoyerswerda,14.4208851704129,51.4808044896124
2991,DE,Lauta,14.1963095015949,51.4824187384614
2994,DE,Bernsdorf,14.076081833467,51.384897512176
2997,DE,Wittichenau,14.2456691320338,51.3803613459956
2999,DE,Lohsa,14.4314779020423,51.3794218631087
3042,DE,Cottbus,14.4173863028766,51.7758491985757
3044,DE,Cottbus,14.3462668653205,51.7851954322445
3046,DE,Cottbus,14.3105961699576,51.7642841051626
3048,DE,Cottbus,14.3084496695284,51.7386575406352
3050,DE,Cottbus,14.3428162204931,51.7338004398863
3051,DE,Cottbus,14.4173519658731,51.7212475070751
3052,DE,Cottbus,14.429363438563,51.7622304181986
3053,DE,Cottbus,14.3899095323459,51.8050107551662
3054,DE,Cottbus,14.3532943121108,51.8320174376614
3055,DE,Cottbus,14.313416921196,51.814200467229
3058,DE,Gallinchen,14.3905994367258,51.6951974057929
3096,DE,Burg / Spreewald,14.2022775486531,51.8398236297927
3099,DE,Kolkwitz,14.2029591073863,51.7541879060613
3103,DE,Neupetershain,14.1242212424135,51.6263004105257
3116,DE,Drebkau,14.2159936024012,51.6464926876213
3119,DE,Welzow,14.1786551453494,51.5759831900948
3130,DE,Spremberg,14.4285361926079,51.5920052162884
3139,DE,Schwarze Pumpe,14.3242706344034,51.531349538805
3149,DE,Forst / Lausitz,14.6080429265096,51.726184190725
3159,DE,Döbern,14.6600872851445,51.6305296247609
3172,DE,Guben,14.5761587483961,51.9595001517035
3185,DE,Peitz,14.4152417815639,51.8779405940495
3197,DE,Jänschwalde,14.5297330572813,51.8798303187555
3205,DE,Calau,13.9487286548992,51.7280249390139
3222,DE,Lübbenau / Spreewald,13.9276631924957,51.8541016396787
3226,DE,Vetschau,14.0521859735019,51.8155505018191
3229,DE,Altdöbern,14.0576959342314,51.6655994167392
3238,DE,Finsterwalde,13.7177879378029,51.6008449442302
3246,DE,Crinitz,13.7803983499336,51.7331039787029
3249,DE,Sonnewalde,13.66779456204,51.7076077577057
3253,DE,Doberlug-Kirchhain,13.500302391339,51.6401628467384
4103,DE,Leipzig,12.393171634463,51.332993367659
4105,DE,Leipzig,12.3615440257456,51.3532158481417
4107,DE,Leipzig,12.3730717463847,51.3319369827246
4109,DE,Leipzig,12.3662239114281,51.3401650247005
4129,DE,Leipzig,12.3909879710159,51.3734807468274
4155,DE,Leipzig,12.3628330267093,51.3628550951064
4157,DE,Leipzig,12.3717511984241,51.3758698758593
4158,DE,Leipzig,12.3717511984241,51.3758698758593
4159,DE,Leipzig,12.3292220441593,51.3743049194689
4177,DE,Leipzig,12.3344688082617,51.3409795431399
4178,DE,Leipzig,12.263,51.3532
4179,DE,Leipzig,12.3167739858808,51.3481006668968
4205,DE,Leipzig,12.2736152868547,51.3272343390933
4207,DE,Leipzig,12.2755323469935,51.3077370124942
4209,DE,Leipzig,12.2989041810904,51.3222662708309
4229,DE,Leipzig,12.3389412705666,51.3215175964767
4249,DE,Leipzig,12.3145431203951,51.2877503441252
4275,DE,Leipzig,12.3738452832566,51.3226214111902
4277,DE,Leipzig,12.3725898920218,51.3077587079575
4279,DE,Leipzig,12.4014143330105,51.294430853771
4288,DE,Leipzig,12.4014143330105,51.294430853771
4289,DE,Leipzig,12.4295352839182,51.301078473028
4299,DE,Leipzig,12.4288304537393,51.319258618199
4315,DE,Leipzig,12.4093019668461,51.3470546635018
4316,DE,Leipzig,12.4093019668461,51.3470546635018
4317,DE,Leipzig,12.4065008216017,51.3324690822652
4318,DE,Leipzig,12.4298561094508,51.3426003738871
4319,DE,Leipzig,12.4298561094508,51.3426003738871
4328,DE,Leipzig,12.451879540918,51.3485458679045
4329,DE,Leipzig,12.4682899135653,51.3591079869906
4347,DE,Leipzig,12.4217583762459,51.361896953518
4349,DE,Leipzig,12.4492022493611,51.3909661643052
4356,DE,Leipzig,12.4401668557006,51.4212075374621
4357,DE,Leipzig,12.4117985796606,51.3822076173024
4416,DE,Markkleeberg,12.3889204344979,51.2687032993467
4420,DE,Markranstädt,12.2211992218854,51.2891977911683
4425,DE,Taucha,12.5114512111022,51.3920499932463
4430,DE,Böhlitz-Ehrenberg,12.2432762354154,51.3559139206556
4435,DE,Schkeuditz,12.2199350715792,51.4006268604343
4439,DE,Engelsdorf,12.5055497926427,51.3314489469419
4442,DE,Zwenkau,12.308936553491,51.2227253359244
4445,DE,Markkleeberg,12.470837306257,51.2789146912471
4448,DE,Wiederitzsch,12.3809155441796,51.4098623696945
4451,DE,Borsdorf,12.5432044572604,51.3547810545218
4454,DE,Holzhausen,12.476892296404,51.3048476214957
4457,DE,Mölkau,12.4531538710731,51.330639183418
4460,DE,Zwenkau,12.2242057057646,51.2182224390448
4463,DE,Großpösna,12.4783958301848,51.2555931737753
4466,DE,Lindenthal,12.336031348193,51.403189550099
4469,DE,Lützschema-Stahmeln,12.2834931677938,51.3903864035007
4509,DE,Delitzsch,12.3540893294459,51.5050963420478
4519,DE,Rackwitz,12.3923988975717,51.4442215906216
4523,DE,Pegau,12.2468769618758,51.1685102177171
4539,DE,Groitzsch,12.3171424354412,51.1301585938282
4552,DE,Borna,12.4892200608762,51.1274493774671
4564,DE,Böhlen,12.3872102067848,51.2106912011367
4565,DE,Regis-Breitingen,12.431013409662,51.0913633740767
4567,DE,Kitzscher,12.5624933510742,51.1723485087927
4571,DE,Rötha,12.4273861285881,51.2027935830858
4574,DE,Neukieritzsch,12.4124975634588,51.1158147186552
4575,DE,Neukieritzsch,12.3789753025592,51.1633050021571
4579,DE,Espenhain,12.4993782702102,51.2091132783251
4600,DE,Altenburg,12.4396082600746,50.9787274538803
4603,DE,Altenburg,12.4643335989671,50.9600749230382
4610,DE,Meuselwitz,12.3480752174873,51.0563331929355
4613,DE,Lucka,12.3319712670842,51.0861728296777
4617,DE,Altenburg,12.3652493877661,51.0151293766588
4618,DE,Langenleuba-Niederhain,12.5770304718426,50.9502635485601
4626,DE,Schmölln,12.3102455710081,50.8983785812604
4639,DE,Gößnitz,12.4237710327968,50.873975112611
4643,DE,Geithain,12.6507686344043,51.0831576094679
4651,DE,Bad Lausick,12.6760064285766,51.1460850388363
4654,DE,Frohburg,12.5596584922644,51.0627418347635
4655,DE,Kohren-Sahlis,12.5913539425324,51.0138467393956
4657,DE,Langensteinbach,12.6720050667348,50.9893938482057
4668,DE,Grimma,12.7343133496508,51.2145485284711
4680,DE,Colditz,12.8092978240245,51.1260307568365
4683,DE,Naunhof,12.5767212896108,51.271758322968
4685,DE,Nerchau,12.8190504023833,51.2766637362082
4687,DE,Trebsen / Mulde,12.7313526360469,51.2877426957742
4688,DE,Mutschen,12.8870621322598,51.26068719464
4703,DE,Leisnig,12.9372759228576,51.1676366624669
4720,DE,Döbeln,13.1185033523152,51.1417764579461
4736,DE,Waldheim,13.0134829549687,51.0666189210948
4741,DE,Roßwein,13.1791283247753,51.0796261264052
4746,DE,Hartha,12.9902997556681,51.1134642496225
4749,DE,Ostrau,13.1526608540259,51.2024772100378
4758,DE,Oschatz,13.1215273735526,51.3452688946092
4769,DE,Mügeln,13.0737737585398,51.2415697159446
4774,DE,Dahlen,12.9853897466733,51.3683300150655
4779,DE,Wermsdorf,12.9628263646574,51.2895993215411
4808,DE,Wurzen,12.8063092816288,51.3900676989149
4821,DE,Brandis,12.6282637944233,51.3266474063332
4824,DE,Beucha,12.5684804330818,51.3216570428175
4827,DE,Machern,12.6286765516949,51.3775615471981
4828,DE,Bennewitz,12.7037063905749,51.344648409688
4838,DE,Eilenburg,12.6860933859381,51.4957576734798
4849,DE,Bad Düben,12.6461408917646,51.5960417380883
4860,DE,Torgau,12.9709264250654,51.5409942774071
4861,DE,Torgau,12.9709264250654,51.5409942774071
4874,DE,Belgern,13.1238507788261,51.459498131359
4880,DE,Dommitzsch,12.84978657406,51.6194880591067
4886,DE,Torgau,13.0897450546123,51.573718086373
4889,DE,Schildau,12.9658636074665,51.4555436832849
4895,DE,Falkenberg / Elster,13.2064305376999,51.5876482814071
4910,DE,Elsterwerda,13.5119239726314,51.4696576104114
4916,DE,Herzberg / Elster,13.2453582251887,51.75956182998
4924,DE,Bad Liebenwerda,13.3769215875885,51.516776631457
4928,DE,Plessa,13.6409511234533,51.4633468918685
4931,DE,Bad Liebenwerda,13.2531142656928,51.4269832652403
4932,DE,Prösen,13.5668065114159,51.4155989172342
4934,DE,Hohenleipisch,13.5687387535445,51.5082479987285
4936,DE,Schlieben,13.4267493536179,51.7469427151217
4938,DE,Uebigau,13.325906935149,51.607393122447
6108,DE,Halle / Saale,11.9662475222527,51.4882414080261
6110,DE,Halle / Saale,11.9742330961222,51.4726326143124
6112,DE,Halle / Saale,11.9971805646992,51.4805757338108
6114,DE,Halle / Saale,11.9696374791132,51.5002909621487
6116,DE,Halle / Saale,12.0392046785579,51.4785704883763
6118,DE,Halle / Saale,11.990138446183,51.5214070213509
6120,DE,Halle / Saale,11.9019696090115,51.5084478826948
6122,DE,Halle / Saale,11.9329853645139,51.4851179835922
6124,DE,Halle / Saale,11.9352488488315,51.4705493587358
6126,DE,Halle / Saale,11.9005915254274,51.4790839684832
6128,DE,Halle / Saale,11.9485959958226,51.4509649775318
6130,DE,Halle / Saale,11.9942544073096,51.4543689843495
6132,DE,Halle / Saale,11.9909915623822,51.4269622846291
6179,DE,Teutschenthal,11.8139981105672,51.4638797327049
6184,DE,Dieskau,12.1022524904989,51.4201347959256
6188,DE,Landsberg,12.1068075406033,51.529501803091
6193,DE,Löbejün,11.9501465908287,51.6012625958585
6198,DE,Wettin,11.8108763894801,51.5717482111287
6217,DE,Merseburg / Saale,11.9861244920452,51.3222647097515
6231,DE,Bad Dürrenberg,12.0978023873219,51.3049252300908
6237,DE,Leuna,12.0143052819163,51.3078820485509
6242,DE,Braunsbedra,11.890853094951,51.2897394659139
6246,DE,Bad Lauchstädt,11.8728400853179,51.3821881311044
6249,DE,Mücheln / Geiseltal,11.7990211903051,51.3044928984231
6254,DE,Wallendorf / Luppe,12.1189412219016,51.3583904924102
6255,DE,Schafstädt,11.7812863992652,51.3721559292173
6258,DE,Schkopau,11.9818559613755,51.3960982543435
6259,DE,Frankleben,11.9449057090502,51.3108756854775
6268,DE,Querfurt,11.606452530147,51.3474147993435
6279,DE,Schraplau,11.6254135734154,51.4303559915242
6295,DE,Eisleben,11.58766671179,51.5193671789769
6308,DE,Benndorf,11.4951777310338,51.579822286718
6311,DE,Helbra,11.5021549269455,51.5559218166929
6313,DE,Hergisdorf,11.4753952324519,51.5304013477177
6317,DE,Röblingen am See,11.6798224413823,51.4744252201209
6318,DE,Wansleben am See,11.7580358390738,51.4603754207704
6333,DE,Hettstedt,11.4649124030939,51.6684161705108
6343,DE,Mansfeld,11.4092992191018,51.5909570857805
6347,DE,Gerbstedt,11.6623290479279,51.6222098945348
6348,DE,Großörner,11.4868831348093,51.618269313772
6366,DE,Köthen / Anhalt,11.9984793277858,51.7581528157269
6369,DE,Köthen / Anhalt,11.987301136388,51.7384196634245
6385,DE,Kleinzerbst,12.0570947419085,51.8470260774227
6386,DE,Osternienburg,12.0878818893545,51.7779652009762
6388,DE,Gröbzig,11.9292260899425,51.6854521672225
6406,DE,Bernburg / Saale,11.746589834486,51.7973275374417
6408,DE,Ilberstedt,11.7796486560128,51.7691922792176
6420,DE,Könnern,11.7940203476863,51.6701348098005
6425,DE,Alsleben / Saale,11.6731187212613,51.7085139533045
6429,DE,Nienburg / Saale,11.7841742363704,51.8431311629708
6449,DE,Aschersleben,11.4570419658436,51.800666041547
6456,DE,Sandersleben,11.5604266863853,51.7006631812331
6458,DE,Hedersleben,11.2864658999984,51.8643354848372
6463,DE,Ermsleben,11.3254308956291,51.7310850877174
6464,DE,Frose,11.3768219374139,51.789542149262
6466,DE,Gatersleben,11.2927550373405,51.8166306138066
6467,DE,Hoym,11.3088211287465,51.7840074947777
6469,DE,Nachterstedt,11.3733715263156,51.8145373405862
6484,DE,Quedlinburg,11.1543823658707,51.8043893812344
6485,DE,Quedlinburg,11.1543823658707,51.8043893812344
6493,DE,Ballenstedt,11.1706177155339,51.6600469678918
6502,DE,Thale / Harz,11.0481819705911,51.7523552271514
6507,DE,Gernrode,11.0649794436773,51.6907470524146
6526,DE,Sangerhausen,11.2939507611881,51.473432124833
6528,DE,Wallhausen,11.2879073715998,51.4901450948996
6536,DE,Roßla,11.0730338735781,51.5058205670487
6537,DE,Kelbra / Kyffhäuser,11.0945868308912,51.4320753913474
6542,DE,Allstedt,11.4180573953223,51.4113349122114
6543,DE,Wippra,11.2894199199643,51.622475044779
6547,DE,Stolberg / Harz,10.9749686559181,51.5834436428758
6548,DE,Rottleberode,10.9889498313129,51.5199227397072
6556,DE,Artern / Unstrut,11.2935534798108,51.3636252746143
6567,DE,Bad Frankenhausen / Kyffhäuser,11.0879619417191,51.3650491363353
6571,DE,Roßleben,11.3859723492902,51.2950620729582
6577,DE,Heldrungen,11.2408652706642,51.2811828757022
6578,DE,Oldisleben,11.1318992746778,51.3006308743297
6618,DE,Naumburg / Saale,11.8245552903681,51.1286073248373
6628,DE,Bad Kösen,11.6943713143845,51.1295151109419
6632,DE,Freyburg / Unstrut,11.7672176123783,51.2369895681938
6636,DE,Laucha / Unstrut,11.6617227593663,51.2261767294874
6638,DE,Karsdorf,11.6383744807334,51.2760350488671
6642,DE,Nebra / Unstrut,11.5281018263304,51.2627288933697
6647,DE,Bad Bibra,11.5447751177798,51.1956955579926
6648,DE,Eckartsberga,11.5265251535704,51.1332510026029
6667,DE,Weißenfels,11.939570549929,51.1959139171483
6679,DE,Hohenmölsen,12.1120382637312,51.1715427545215
6682,DE,Teuchern,12.0246061931873,51.1286299613915
6686,DE,Lützen,12.1208279019383,51.2340742906798
6688,DE,Großkorbetha,12.0224725718048,51.2615221848623
6712,DE,Zeitz,12.1326542565044,51.0313420535447
6721,DE,Osterfeld,11.9567766062684,51.0735432708229
6722,DE,Droyßig,11.9963730588227,51.0299535839097
6724,DE,Kayna,12.1853213840226,51.0059806082067
6725,DE,Profen,12.1979214119735,51.1246495535012
6727,DE,Theißen,12.1163979417598,51.0982289068342
6729,DE,Tröglitz,12.225343616854,51.0672322383968
6749,DE,Bitterfeld,12.3570996288414,51.6232517942516
6766,DE,Wolfen,12.2414476061813,51.6705321023532
6772,DE,Gräfenhainichen,12.5112298557344,51.740023407907
6773,DE,Gräfenhainichen,12.5112298557344,51.740023407907
6774,DE,Pouch,12.527760808465,51.6423467925274
6779,DE,Dessau,12.2517728510694,51.7313459169875
6780,DE,Zörbig,12.1293939682895,51.6256289737216
6785,DE,Oranienbaum,12.4247286008481,51.8009298605094
6786,DE,Vockerode,12.4222602640289,51.8462977080974
6791,DE,Zschornewitz,12.3804066567452,51.7278688472326
6792,DE,Sandersdorf,12.2589548582211,51.6311039991786
6794,DE,Zscherndorf,12.2214159224884,51.6027321342761
6796,DE,Brehna,12.2064874810512,51.5612254852392
6800,DE,Jeßnitz,12.3263162731707,51.68465567602
6803,DE,Greppin,12.2962013488615,51.6518816778899
6804,DE,Muldenstein,12.385874363235,51.6748285393591
6808,DE,Holzweißig,12.3350819980435,51.5981126893487
6809,DE,Roitzsch,12.2770356872009,51.5809081580122
6842,DE,Dessau,12.3036968731842,51.791176430644
6844,DE,Dessau,12.2738218121756,51.8527522723214
6846,DE,Dessau,12.1854512725513,51.8489294621642
6847,DE,Dessau,12.1920974697973,51.7973093727484
6849,DE,Dessau,12.2597617131324,51.7998838363924
6861,DE,Dessau-Roßlau,12.2597617131324,51.7998838363924
6862,DE,Roßlau / Elbe,12.3133850951095,51.9540485850399
6869,DE,Coswig / Anhalt,12.4589177436279,51.9261098408206
6886,DE,Wittenberg,12.6184971831313,51.8711897739943
6888,DE,Wittenberg,12.713090924558,51.8611747546491
6889,DE,Wittenberg,12.713090924558,51.8611747546491
6895,DE,Zahna,12.7642874164663,51.9388458174877
6896,DE,Wittenberg,12.6247672508236,51.9499748642697
6901,DE,Kemberg,12.6957356792577,51.7751851831519
6905,DE,Bad Schmiedeberg,12.7119564477929,51.6957477647318
6909,DE,Pretzsch / Elbe,12.7827917505715,51.7273432616097
6917,DE,Jessen / Elster,12.9570113944388,51.8065586402059
6918,DE,Elster / Elbe,12.8885805026894,51.8748029947278
6922,DE,Prettin,12.9241647127707,51.6946966182531
6925,DE,Annaburg,13.0687192153067,51.7137341256633
6926,DE,Holzdorf,13.1250916855999,51.7943816084288
6928,DE,Jessen / Elster,13.1196739134638,51.8650516869313
7318,DE,Saalfeld / Saale,11.3299744091449,50.6259351262563
7330,DE,Probstzella,11.3847435908755,50.552677052717
7333,DE,Unterwellenborn,11.430360854678,50.6810743085035
7334,DE,Kamsdorf,11.4722251306449,50.6347826082225
7336,DE,Könitz,11.4895586209716,50.6611125303224
7338,DE,Kaulsdorf,11.4943261047182,50.5846497035097
7343,DE,Wurzbach,11.5195667360178,50.4472988626744
7349,DE,Lehesten,11.4575214694023,50.4695950725703
7356,DE,Lobenstein. Moorbad,11.5935206223689,50.4849812347115
7366,DE,Lobenstein. Moorbad,11.6743854549961,50.4156560299454
7368,DE,Ebersdorf / Thüringen,11.6586090320888,50.5236118750782
7381,DE,Pößneck,11.6011003167057,50.7061155152272
7387,DE,Krölpa,11.520159278719,50.6718316758634
7389,DE,Ranis,11.6264883980434,50.6480175319359
7407,DE,Rudolstadt,11.3478176538805,50.7553776363662
7422,DE,Bad Blankenburg,11.2066910822377,50.685770564439
7426,DE,Königsee,11.1102476717725,50.6552540085181
7427,DE,Schwarzburg,11.199640691106,50.647750625862
7429,DE,Sitzendorf,11.2073748719122,50.6161408495569
7545,DE,Gera,12.0867795903403,50.8812552246626
7546,DE,Gera,12.1015615456598,50.887634357804
7548,DE,Gera,12.0430157263032,50.8768343494099
7549,DE,Gera,12.0620557984077,50.8401766346874
7551,DE,Gera,12.1126783705392,50.8368658890013
7552,DE,Gera,12.0647272901622,50.9183036886093
7554,DE,Gera,12.1310597359673,50.9248567967924
7557,DE,Gera,12.0126290459413,50.8220779403262
7558,DE,Töppeln,12.0030940629166,50.8979614171369
7570,DE,Weida,12.0273664791665,50.7721363654503
7580,DE,Ronneburg,12.2111705983277,50.8387210714108
7586,DE,Bad Köstritz,11.965453784803,50.90616263298
7589,DE,Münchenbernsdorf,11.9364425587913,50.833556135822
7607,DE,Eisenberg,11.8845787564917,50.9657724699035
7613,DE,Krossen / Elster,11.9411090731559,50.989526523504
7616,DE,Bürgel,11.7798712236149,50.9557040800003
7619,DE,Schkölen,11.8159735836736,51.0218670199036
7629,DE,Hermsdorf,11.85939050461,50.8754364341252
7639,DE,Bad Klosterlausnitz,11.8803540643462,50.9214662783369
7646,DE,Stadtroda,11.7530464179552,50.8469779924126
7743,DE,Jena,11.5991979164673,50.9525831163874
7745,DE,Jena,11.5645155260795,50.9080082942493
7747,DE,Jena,11.6129105442311,50.8901302877122
7749,DE,Jena,11.6152308281228,50.9234851356731
7751,DE,Jena,11.58303165039,50.902514995611
7768,DE,Kahla,11.5517106898604,50.8010541574023
7774,DE,Camburg,11.7232552069721,51.0401769689154
7778,DE,Dorndorf-Steudnitz,11.6538423595465,50.99680468923
7806,DE,Neustadt / Orla,11.7357384649495,50.7241073410755
7819,DE,Triptis,11.8341410845468,50.7401591255581
7907,DE,Schleiz,11.8155778004631,50.5942709690231
7919,DE,Schleiz,11.9109553943808,50.5481104601518
7922,DE,Tanna,11.8613639912742,50.4904383769769
7924,DE,Ziegenrück,11.7125047996814,50.6063828529521
7926,DE,Gefell,11.825190848082,50.4464677919037
7927,DE,Hirschberg,11.8168541799613,50.421965474658
7929,DE,Saalburg,11.7506218754476,50.5040557408063
7937,DE,Zeulenroda,11.9862374645373,50.6364969052911
7950,DE,Triebes,11.9996822910413,50.6989939289957
7952,DE,Pausa / Vogtland,12.0128972845541,50.5846903778175
7955,DE,Auma,11.9057915331088,50.7021345478783
7957,DE,Langenwetzendorf,12.1045750748333,50.6731188627181
7958,DE,Hohenleuben,12.0547913273412,50.7115698097412
7973,DE,Greiz,12.1959335707288,50.6577674739626
7980,DE,Berga / Elster,12.1514906395221,50.7401807475254
7985,DE,Elsterberg,12.1490982489236,50.6074070942332
7987,DE,Mohlsdorf,12.2707660366772,50.6786460778154
7989,DE,Teichwolframsdorf,12.2277972678638,50.7275813460746
8056,DE,Zwickau,12.486863749973,50.7070949223661
8058,DE,Zwickau,12.4732938708401,50.7434160498603
8060,DE,Zwickau,12.446934771112,50.7254479686663
8062,DE,Zwickau,12.4694099890743,50.6954720638055
8064,DE,Zwickau,12.4741064460124,50.6699308964447
8066,DE,Zwickau,12.5281236823179,50.7294977177248
8107,DE,Kirchberg,12.524903811567,50.5997089450946
8112,DE,Wilkau-Haßlau,12.5165811126253,50.6672621649902
8115,DE,Lichtentanne,12.4161417134645,50.6803569278233
8118,DE,Hartenstein,12.672409328799,50.6721234550497
8121,DE,Wiesenburg,12.5661580905752,50.6587648798226
8124,DE,Cainsdorf,12.4955961848419,50.6747576309374
8129,DE,Mosel,12.4804784415366,50.769930215282
8132,DE,Mülsen Sankt Jacob,12.5822818420749,50.7431293722002
8134,DE,Langenbach,12.6071724553909,50.6498618562331
8138,DE,Thurm,12.5350671223928,50.7744438698686
8141,DE,Reinsdorf,12.5620258467453,50.7010919153192
8144,DE,Ebersbrunn,12.4537821126743,50.6384622179008
8146,DE,Ortmannsdorf,12.6138453304008,50.7146705241455
8147,DE,Crinitzberg,12.5017820560612,50.5726264148723
8149,DE,Vielau,12.5486461783056,50.6823937888668
8209,DE,Auerbach / Vogtland,12.4175172040978,50.490605793024
8223,DE,Falkenstein / Vogtland,12.3550336030861,50.4430691570352
8228,DE,Rodewisch,12.4262198012763,50.541850654435
8233,DE,Treuen,12.3045293685056,50.5416225742726
8236,DE,Ellefeld,12.3888085420852,50.4822713758959
8237,DE,Steinberg,12.488071628113,50.5405166645188
8239,DE,Bergen,12.2970321759247,50.4834749327399
8248,DE,Klingenthal / Sachsen,12.4694300457428,50.3874652993947
8258,DE,Markneukirchen,12.3332466743015,50.3075436069232
8261,DE,Schöneck / Vogtland,12.3302626150211,50.3919346549638
8262,DE,Tannenbergsthal / Vogtland,12.5097482638738,50.4297289379388
8265,DE,Erlbach,12.3863286698248,50.3173301282003
8267,DE,Zwota,12.4120971669422,50.3616359200149
8269,DE,Hammerbrücke,12.4247297491474,50.435334631793
8280,DE,Aue,12.695325019294,50.5916917300756
8289,DE,Schneeberg,12.621056157556,50.5936306884689
8294,DE,Lößnitz,12.7495759934588,50.6266225016488
8297,DE,Zwönitz,12.8154041759413,50.6336643514439
8301,DE,Schlema,12.6645371972865,50.6173198119268
8304,DE,Schönheide,12.5181132156025,50.5011718277378
8309,DE,Eibenstock,12.6095540779127,50.4739556406081
8312,DE,Lauter / Sachsen,12.7250955869306,50.5542937674015
8315,DE,Bernsbach,12.7643359942988,50.5825687383669
8318,DE,Hundshübel,12.5898439245185,50.5428595041894
8321,DE,Zschorlau,12.6446383291751,50.5535407582263
8324,DE,Bockau,12.6827406995226,50.5302227190108
8325,DE,Carlsfeld,12.5629377917501,50.4458608660715
8326,DE,Sosa,12.6714942545114,50.4881809532701
8328,DE,Stützengrün,12.5323289475989,50.5350664240952
8340,DE,Schwarzenberg / Erzgebirge,12.7720954709853,50.5321872678262
8349,DE,Johanngeorgenstadt,12.7009047647323,50.4439937771012
8352,DE,Raschau,12.8542660629096,50.5121548287826
8355,DE,Rittersgrün,12.8241038159626,50.4650924876
8358,DE,Grünhain,12.8167169450852,50.5812598942335
8359,DE,Breitenbrunn / Erzgebirge,12.7574079383302,50.4749808562199
8371,DE,Glauchau,12.5599624357773,50.8173134598226
8373,DE,Glauchau,12.5663346534213,50.8595637223699
8393,DE,Meerane,12.4793185089081,50.8462307110417
8396,DE,Waldenburg,12.5860136916214,50.8873234905535
8399,DE,Wolkenburg-Kaufungen,12.6739019551163,50.8986628962385
8412,DE,Werdau,12.3475629193248,50.7281180570154
8427,DE,Fraureuth,12.3523399324194,50.6950227242493
8428,DE,Langenbernsdorf,12.2948191476575,50.7586497148081
8432,DE,Steinpleis,12.4029056064417,50.7130917932938
8439,DE,Crimmitschau,12.3998919347796,50.776021375039
8451,DE,Crimmitschau,12.3523358791229,50.815778481942
8459,DE,Neukirchen / Pleiße,12.3871137140808,50.7856720409436
8468,DE,Reichenbach / Vogtland,12.3318122708773,50.6231017688435
8485,DE,Lengenfeld,12.3762108053875,50.5853191299302
8491,DE,Netzschkau,12.2436381286013,50.598473587115
8496,DE,Neumark,12.3531807418877,50.6566176990435
8499,DE,Mylau,12.2637239824055,50.6234321433249
8523,DE,Plauen,12.1160258048543,50.498539064081
8525,DE,Plauen,12.1169079409849,50.5231334307979
8527,DE,Plauen,12.0986247751092,50.4804942293455
8529,DE,Plauen,12.1718490562522,50.5003517187303
8538,DE,Weischlitz,12.0025987258213,50.4400272495619
8539,DE,Mehltheuer,11.9990703840543,50.5307907907031
8541,DE,Neuensalz,12.2327286288619,50.5000504630127
8543,DE,Pöhl,12.1966776226283,50.5587768662103
8547,DE,Jößnitz,12.1344254407869,50.5512608543529
8548,DE,Syrau,12.0829234930141,50.5549179119474
8606,DE,Oelsnitz,12.1238888751382,50.3945874005033
8626,DE,Adorf,12.2251333029982,50.3501341425937
8645,DE,Bad Elster,12.2504877661935,50.2833356736527
8648,DE,Bad Brambach,12.3030082375668,50.2273069161752
9111,DE,Chemnitz,12.9267830162303,50.8372846848644
9112,DE,Chemnitz,12.9065871546338,50.8331045538051
9113,DE,Chemnitz,12.913110691005,50.8491029007125
9114,DE,Chemnitz,12.9137143723459,50.8732864922514
9116,DE,Chemnitz,12.8713348985652,50.8284565742832
9117,DE,Chemnitz,12.8356181312698,50.8236465230746
9119,DE,Chemnitz,12.8942987983772,50.8162899788091
9120,DE,Chemnitz,12.9109222516754,50.8114359835977
9122,DE,Chemnitz,12.8873696000231,50.7976341231625
9123,DE,Chemnitz,12.9369546750296,50.7701145615889
9125,DE,Chemnitz,12.9422952093239,50.7898915599258
9126,DE,Chemnitz,12.9400361625267,50.8141428648277
9127,DE,Chemnitz,12.9819527238901,50.818208752639
9128,DE,Chemnitz,13.0211799635062,50.8161243062206
9130,DE,Chemnitz,12.9537758233364,50.8380174254233
9131,DE,Chemnitz,12.9671023638916,50.8628164479176
9212,DE,Limbach-Oberfrohna,12.7373537960335,50.8635838312403
9217,DE,Burgstädt,12.8066132989662,50.9239047697883
9221,DE,Neukirchen / Erzgebirge,12.8659780722872,50.7719828793929
9224,DE,Grüna,12.7921182779284,50.8161629163608
9228,DE,Wittgensdorf,12.8645128330111,50.887704658556
9232,DE,Hartmannsdorf,12.7975494485357,50.8840816342806
9235,DE,Burkhardtsdorf,12.9177988374825,50.7331390223064
9236,DE,Claußnitz,12.8821165651038,50.9406361777314
9238,DE,Auerswalde,12.9243894676595,50.9111720576876
9240,DE,Kemtau,12.958349125034,50.743120155424
9241,DE,Mühlau,12.7658153780141,50.9020793157059
9243,DE,Niederfrohna,12.7354003356927,50.8892584513475
9244,DE,Lichtenau,12.9942248778037,50.9118669102667
9246,DE,Pleißa,12.7682123440334,50.838454425384
9247,DE,Röhrsdorf,12.8296799269788,50.8621556174322
9249,DE,Taura bei Burgstädt,12.8577915926272,50.911482556408
9306,DE,Rochlitz,12.8308972196979,51.0316222706455
9322,DE,Penig,12.7284358069656,50.9324267657589
9326,DE,Geringswalde,12.9134052347516,51.0752029583313
9328,DE,Lunzenau,12.7550378603045,50.9662961144297
9337,DE,Hohenstein-Ernstthal,12.6753139142084,50.8236906566503
9350,DE,Lichtenstein / Sachsen,12.6370534881619,50.7506509176925
9353,DE,Oberlungwitz,12.7389711773462,50.7897238404594
9355,DE,Gersdorf,12.7028680699199,50.7614869398771
9356,DE,Sankt Egidien,12.6345213654408,50.8026604935581
9358,DE,Wüstenbrand,12.7487732756206,50.8126353755586
9366,DE,Stollberg / Erzgebirge,12.7709763519226,50.6975125911581
9376,DE,Oelsnitz / Erzgebirge,12.6938119111935,50.7210982205368
9380,DE,Thalheim / Erzgebirge,12.8351508185078,50.6866554088866
9385,DE,Lugau / Erzgebirge,12.7522546032833,50.760236645411
9387,DE,Jahnsdorf,12.8275139701905,50.7569240318118
9390,DE,Gornsdorf,12.8803298493942,50.7185220995974
9392,DE,Auerbach,12.9111176710294,50.689758895448
9394,DE,Hohndorf,12.675769364323,50.74453824975
9395,DE,Hormersdorf,12.8797256787179,50.6718723552009
9397,DE,Neuwürschnitz,12.7292813974357,50.7055198906432
9399,DE,Niederwürschnitz,12.7608322832993,50.729363502681
9405,DE,Zschopau,13.0597737391109,50.7647137513564
9419,DE,Thum,12.9510771969286,50.6760233459322
9423,DE,Gelenau / Erzgebirge,12.953934236289,50.7122313564724
9427,DE,Ehrenfriedersdorf,12.9607465596613,50.6463922637836
9429,DE,Wolkenstein,13.0775790445392,50.6541068865493
9430,DE,Drebach,13.0128790020574,50.6804718502294
9432,DE,Großolbersdorf,13.0839784161063,50.6965986852825
9434,DE,Krumhermersdorf,13.1079809576973,50.7369405296452
9435,DE,Scharfenstein,13.0480578638079,50.7086185162863
9437,DE,Waldkirchen / Erzgebirge,13.1261679701576,50.7461117837534
9439,DE,Amtsberg,13.0095124582895,50.7446706510406
9456,DE,Annaberg-Buchholz,13.0390824395746,50.5776455647398
9465,DE,Sehma,12.9823186972563,50.4963432977372
9468,DE,Geyer,12.9187137657074,50.6144189254258
9471,DE,Bärenstein,13.0468369493324,50.52944555
9474,DE,Crottendorf,12.9291348167857,50.5036818268231
9477,DE,Jöhstadt,13.132163278331,50.5428078390332
9481,DE,Scheibenberg,12.8767929562876,50.5768897844397
9484,DE,Oberwiesenthal,12.9515776540159,50.4415038592064
9487,DE,Schlettau,12.9510470370559,50.5674974417951
9488,DE,Wiesa,13.0135686535114,50.6183364171423
9496,DE,Marienberg,13.1980228446334,50.6135223477325
9509,DE,Pockau / Flöhatal,13.2775179666108,50.7230616069823
9514,DE,Lengefeld,13.1824485837044,50.7233213388058
9517,DE,Zöblitz,13.2551133668441,50.6602989502376
9518,DE,Großrückerswalde,13.1148796209929,50.6213940783332
9526,DE,Olbernhau,13.342204773134,50.6560545973962
9544,DE,Neuhausen / Erzgebirge,13.4948988190735,50.6822287250406
9548,DE,Seiffen / Erzgebirge,13.4620314236802,50.6333391691379
9557,DE,Flöha,13.0798404157347,50.8740218856906
9569,DE,Oederan,13.1845283574642,50.8665296643539
9573,DE,Leubsdorf,13.1311130401514,50.8082236428566
9575,DE,Eppendorf,13.2581692375491,50.7967993849914
9577,DE,Niederwiesa,13.0187579019308,50.8686686848228
9579,DE,Borstendorf,13.1899750618595,50.7677983024004
9599,DE,Freiberg,13.3340225849824,50.9145219996183
9600,DE,Freiberg,13.3504903258263,50.9097680422667
9603,DE,Großschirma,13.2695286155511,50.9689037877956
9618,DE,Brand-Erbisdorf,13.3169088578281,50.8142568418226
9619,DE,Mulda / Sachsen,13.4171472121539,50.7585486755528
9623,DE,Frauenstein,13.5377862576833,50.7683485989789
9627,DE,Bobritzsch,13.4488220608783,50.891661803463
9629,DE,Reinsberg,13.3834598099214,51.0163125589043
9633,DE,Halsbrücke,13.370679660526,50.9593036398592
9634,DE,Siebenlehn,13.2912660234433,51.015353131559
9636,DE,Langenau,13.2844789348611,50.83613961687
9638,DE,Lichtenberg / Erzgebirge,13.4056970982759,50.8331420484761
9648,DE,Mittweida,12.9852705366061,50.9886713757471
9661,DE,Hainichen,13.1405155309005,50.9980768437475
9669,DE,Frankenberg,13.0748925243345,50.9202833210158
10115,DE,Berlin,13.387223860255,52.5337069545604
10117,DE,Berlin,13.3901933840594,52.518745648599
10119,DE,Berlin,13.4071489783586,52.5326657646216
10178,DE,Berlin,13.4122033308763,52.5234743092278
10179,DE,Berlin,13.4196989324626,52.5145909366732
10243,DE,Berlin,13.441955897094,52.5149175142057
10245,DE,Berlin,13.4666745683003,52.5031273050411
10247,DE,Berlin,13.4680419058628,52.5184110970565
10249,DE,Berlin,13.4446109366815,52.5260516533921
10315,DE,Berlin,13.5180351693644,52.5110313044758
10317,DE,Berlin,13.4918839223831,52.4992463209894
10318,DE,Berlin,13.5319785815516,52.4859406529291
10319,DE,Berlin,13.521117804593,52.5015461261736
10365,DE,Berlin,13.5025751842374,52.5235035330047
10367,DE,Berlin,13.4833221986446,52.5244522726978
10369,DE,Berlin,13.4725178111811,52.5317005904026
10405,DE,Berlin,13.4267880784802,52.5368169582257
10407,DE,Berlin,13.4498736162666,52.535524401385
10409,DE,Berlin,13.4432411934032,52.5456113489031
10435,DE,Berlin,13.4133942261249,52.5394981804891
10437,DE,Berlin,13.4152318322189,52.5468914296257
10439,DE,Berlin,13.4148230973378,52.5544478879925
10551,DE,Berlin,13.3389655683318,52.5326967400819
10553,DE,Berlin,13.3236845323834,52.5322795508294
10555,DE,Berlin,13.3378843627346,52.5239104697248
10557,DE,Berlin,13.3615741646083,52.5252332996821
10559,DE,Berlin,13.3522191245315,52.5324813297304
10585,DE,Berlin,13.3076699591771,52.5165313568177
10587,DE,Berlin,13.323002850878,52.5199655352473
10589,DE,Berlin,13.3084940352002,52.5293987837623
10623,DE,Berlin,13.3296072858482,52.5097675893044
10625,DE,Berlin,13.3178387932193,52.5105620578802
10627,DE,Berlin,13.3056479944576,52.5100925652213
10629,DE,Berlin,13.3107476938185,52.5044737398752
10707,DE,Berlin,13.3170093030047,52.4983050289072
10709,DE,Berlin,13.306142603276,52.4954485316766
10711,DE,Berlin,13.2943845406852,52.499380709168
10713,DE,Berlin,13.3161107580713,52.4869762041054
10715,DE,Berlin,13.3316870937737,52.4844027617855
10717,DE,Berlin,13.3305003816797,52.4926932578024
10719,DE,Berlin,13.3276744310593,52.5003181055802
10777,DE,Berlin,13.3451852142708,52.499980342922
10779,DE,Berlin,13.3427330390818,52.4946054529659
10781,DE,Berlin,13.3558006569262,52.4951423148389
10783,DE,Berlin,13.3653339673952,52.4986555479497
10785,DE,Berlin,13.3665879428981,52.5099849607846
10787,DE,Berlin,13.3462538795073,52.5096066309895
10789,DE,Berlin,13.3394717112393,52.5039793544826
10823,DE,Berlin,13.3559851567001,52.4893548491328
10825,DE,Berlin,13.3443341278918,52.4855207111381
10827,DE,Berlin,13.3559927861899,52.4843186813605
10829,DE,Berlin,13.3642879770327,52.4817524353199
10961,DE,Berlin,13.4004793776075,52.4952626002665
10963,DE,Berlin,13.3826867450857,52.4979614983904
10965,DE,Berlin,13.4091096524196,52.4870195291943
10967,DE,Berlin,13.4183706052184,52.4939054520842
10969,DE,Berlin,13.404576744008,52.5045966317146
10997,DE,Berlin,13.4385816383592,52.5033140068311
10999,DE,Berlin,13.4307897835171,52.4988904600018
12043,DE,Berlin,13.4420275913886,52.4820632906188
12045,DE,Berlin,13.4414653455142,52.487989472715
12047,DE,Berlin,13.4310089106011,52.4929987346046
12049,DE,Berlin,13.4242261222021,52.4799117754227
12051,DE,Berlin,13.4327065282941,52.4699937447169
12053,DE,Berlin,13.4347529869337,52.4803905957987
12055,DE,Berlin,13.4515681157336,52.4752216863972
12057,DE,Berlin,13.4652871310638,52.4711951903196
12059,DE,Berlin,13.4537084735947,52.4844747077379
12099,DE,Berlin,13.405508170112,52.4618263208458
12101,DE,Berlin,13.394751159498,52.4776963253956
12103,DE,Berlin,13.3752062205834,52.4648685781299
12105,DE,Berlin,13.3765894059507,52.4514754565422
12107,DE,Berlin,13.3922647383568,52.4348835778104
12109,DE,Berlin,13.4034173372607,52.4488382457536
12157,DE,Berlin,13.3513289658818,52.467615807441
12159,DE,Berlin,13.3399939788589,52.4759641807104
12161,DE,Berlin,13.3295132501498,52.4721897491969
12163,DE,Berlin,13.3202781398441,52.4644422486276
12165,DE,Berlin,13.317369813824,52.4576665391264
12167,DE,Berlin,13.3370593699206,52.4506713776368
12169,DE,Berlin,13.3463381712839,52.4568899427746
12203,DE,Berlin,13.3129878055449,52.446403630872
12205,DE,Berlin,13.2982488987369,52.435097309909
12207,DE,Berlin,13.3163617750996,52.421792221188
12209,DE,Berlin,13.3323603731155,52.4193169718975
12247,DE,Berlin,13.3494467986603,52.4414395140715
12249,DE,Berlin,13.3545342084671,52.4285081522747
12277,DE,Berlin,13.3780446934416,52.4135445634688
12279,DE,Berlin,13.3559924384162,52.4131558920874
12305,DE,Berlin,13.4051078658903,52.4075610706165
12307,DE,Berlin,13.3993520883087,52.3889700399218
12309,DE,Berlin,13.4207145219275,52.3933299269535
12347,DE,Berlin,13.4335618050316,52.4545967334104
12349,DE,Berlin,13.4246197487488,52.4278732513536
12351,DE,Berlin,13.4576118031613,52.4360672486559
12353,DE,Berlin,13.4622880385421,52.4254514979954
12355,DE,Berlin,13.5003457759319,52.4125054989062
12357,DE,Berlin,13.4965721454986,52.430678436815
12359,DE,Berlin,13.4560863240667,52.4498790377267
12435,DE,Berlin,13.4695807779128,52.4892696010755
12437,DE,Berlin,13.4852021234671,52.4644355159079
12439,DE,Berlin,13.5287000663812,52.4553692654092
12459,DE,Berlin,13.5338823608518,52.4674428562031
12487,DE,Berlin,13.5123030299836,52.4437609777381
12489,DE,Berlin,13.5505086869178,52.4387454534349
12524,DE,Berlin,13.5439956936132,52.415364387871
12526,DE,Berlin,13.5683342065542,52.4003510832493
12527,DE,Berlin,13.6472864562236,52.3904985836759
12529,DE,Schönefeld,13.5149900897941,52.3889294901218
12555,DE,Berlin,13.5839929098869,52.4665109236445
12557,DE,Berlin,13.5898029905167,52.4334076690432
12559,DE,Berlin,13.6610627350305,52.4184984729217
12587,DE,Berlin,13.6392862079954,52.4612192604603
12589,DE,Berlin,13.7086736438618,52.4467771869799
12619,DE,Berlin,13.5921010689776,52.5263880577382
12621,DE,Berlin,13.5913950913841,52.5051522638564
12623,DE,Berlin,13.6204141711191,52.5051014186679
12625,DE,Dahlwitz-Hoppegarten,13.6388090389145,52.4837160277322
12627,DE,Berlin,13.6176376411181,52.5393614922753
12629,DE,Berlin,13.5941279201636,52.5441203468715
12679,DE,Berlin,13.568049993488,52.5508667666053
12681,DE,Berlin,13.5398499484887,52.5392572203694
12683,DE,Berlin,13.5634261799858,52.5102952601468
12685,DE,Berlin,13.5677457680633,52.5415487672102
12687,DE,Berlin,13.5660576222808,52.5577981791934
12689,DE,Berlin,13.5724384230776,52.5680178485138
13051,DE,Berlin,13.4977831222371,52.5796428958308
13053,DE,Berlin,13.5080369182889,52.551670058109
13055,DE,Berlin,13.501001376208,52.5417057639188
13057,DE,Berlin,13.5445963813574,52.5742412452123
13059,DE,Berlin,13.5250476692832,52.5829575814688
13086,DE,Berlin,13.450440951468,52.5570222649255
13088,DE,Berlin,13.4732794092776,52.5621199431689
13089,DE,Berlin,13.4433019480544,52.5729887447053
13125,DE,Berlin,13.4848450722345,52.6324937181686
13127,DE,Berlin,13.4374029276763,52.6168116526419
13129,DE,Berlin,13.4614442021843,52.5936142515949
13156,DE,Berlin,13.403043816146,52.5847564086279
13158,DE,Berlin,13.3847560561751,52.5950262753029
13159,DE,Berlin,13.4041492446388,52.6273525672027
13187,DE,Berlin,13.411385061125,52.5713464019623
13189,DE,Berlin,13.4239896080658,52.5654491836665
13347,DE,Berlin,13.36824632201,52.5502581143634
13349,DE,Berlin,13.3510416711152,52.5599776197015
13351,DE,Berlin,13.3358220609056,52.5523561805678
13353,DE,Berlin,13.3521576695883,52.5429038646217
13355,DE,Berlin,13.3929324255526,52.5443614902536
13357,DE,Berlin,13.3838173801168,52.5525768798017
13359,DE,Berlin,13.3876310000699,52.5623515502214
13403,DE,Berlin,13.324621449436,52.5758000420115
13405,DE,Berlin,13.3003297773036,52.5606637013871
13407,DE,Berlin,13.3539718058248,52.5749013715726
13409,DE,Berlin,13.3740502441446,52.5704325644934
13435,DE,Berlin,13.3462947087821,52.604537487811
13437,DE,Berlin,13.3313128005558,52.5918836351775
13439,DE,Berlin,13.3608568915293,52.5998197875082
13465,DE,Berlin,13.2918233417028,52.6422151125516
13467,DE,Berlin,13.3095440935657,52.6192318622295
13469,DE,Berlin,13.3447390968519,52.6140433160788
13503,DE,Berlin,13.2507286251541,52.6142685472452
13505,DE,Berlin,13.243794162527,52.5866691236435
13507,DE,Berlin,13.2771755272941,52.57760317075
13509,DE,Berlin,13.3021583893308,52.5914792966052
13581,DE,Berlin,13.182873379052,52.5326248381604
13583,DE,Berlin,13.1849402417922,52.5449869139517
13585,DE,Berlin,13.2082410806722,52.5499595884426
13587,DE,Berlin,13.1886385147409,52.5787168178627
13589,DE,Berlin,13.1716155572309,52.5593457281758
13591,DE,Berlin,13.1431255431994,52.5369738590092
13593,DE,Berlin,13.1689320395639,52.514420410581
13595,DE,Berlin,13.1997959233568,52.513140949933
13597,DE,Berlin,13.2195000409579,52.5307055743027
13599,DE,Berlin,13.2379817564183,52.5497910721393
13627,DE,Berlin,13.3038196651304,52.5415745051549
13629,DE,Berlin,13.271127521969,52.5442205779539
14050,DE,Berlin,13.2708888735398,52.5231773248051
14052,DE,Berlin,13.2577967119814,52.5177716347351
14053,DE,Berlin,13.236259872352,52.5193364704831
14055,DE,Berlin,13.2482336543322,52.5041594850209
14057,DE,Berlin,13.2898230938842,52.5073630270276
14059,DE,Berlin,13.2916103422924,52.5220217506446
14089,DE,Berlin,13.1536450353871,52.4715702844308
14109,DE,Berlin,13.1473530234215,52.4213054478161
14129,DE,Berlin,13.1961555645845,52.4397012376639
14163,DE,Berlin,13.2419011063964,52.4394706957669
14165,DE,Berlin,13.2569406588995,52.4196512095982
14167,DE,Berlin,13.2796062383123,52.4232104487911
14169,DE,Berlin,13.2658745634796,52.446430304251
14193,DE,Berlin,13.232887580692,52.4763424603794
14195,DE,Berlin,13.2869441360215,52.4593174332029
14197,DE,Berlin,13.3146786143367,52.4750092609528
14199,DE,Berlin,13.2981082081636,52.4791974690517
14467,DE,Potsdam,13.0705258654202,52.4054762015731
14469,DE,Potsdam,13.029986906528,52.4314951867235
14471,DE,Potsdam,13.0087823451167,52.3888375191114
14473,DE,Potsdam,13.0537415336664,52.3716418030867
14476,DE,Potsdam,12.9990975948798,52.4641431451378
14478,DE,Potsdam,13.0982098268584,52.3705285167341
14480,DE,Potsdam,13.1373585186045,52.3763930923582
14482,DE,Potsdam,13.1071906466933,52.3955010729354
14513,DE,Teltow,13.2772322454355,52.3868799999217
14532,DE,Kleinmachnow,13.1960803468877,52.3632442897134
14542,DE,Werder / Havel,12.8833515790843,52.369342868988
14547,DE,Beelitz,12.9615028458272,52.2300981946592
14548,DE,Caputh,12.9356991323007,52.3191553107933
14550,DE,Groß Kreutz,12.798775446065,52.4232880142443
14552,DE,Michendorf,13.0813619465974,52.2954569299639
14554,DE,Seddiner See,13.0039331665146,52.2786173858128
14557,DE,Langerwisch,13.064452335212,52.3244155019962
14558,DE,Bergholz-Rehbrücke,13.0997189633564,52.3466069509941
14612,DE,Falkensee,13.086866005687,52.5739409741468
14621,DE,Schönwalde,13.126919552921,52.6113019764527
14624,DE,Dallgow,13.0599188901911,52.5165117852226
14627,DE,Elstal,12.9964200639617,52.5463489838514
14641,DE,Nauen,12.8497190215424,52.6178027422884
14656,DE,Brieselang,13.012765482937,52.5944016191818
14662,DE,Friesack,12.6102603660063,52.7360570031855
14669,DE,Ketzin,12.8302397523045,52.4905204515591
14712,DE,Rathenow,12.3593796691535,52.6155996834864
14715,DE,Milow,12.3763908380341,52.6098857280572
14727,DE,Premnitz,12.3780867777891,52.5354412640132
14728,DE,Rhinow,12.3816940007709,52.7442671916944
14770,DE,Brandenburg / Havel,12.5200269970668,52.4088184299284
14772,DE,Brandenburg / Havel,12.4993346667385,52.4379923339066
14774,DE,Brandenburg / Havel,12.4214575344919,52.4058123606789
14776,DE,Brandenburg / Havel,12.5410343545327,52.3896820113261
14778,DE,Brandenburg / Havel,12.604109680994,52.4014651921338
14789,DE,Wusterwitz,12.3558790610118,52.3678259991037
14793,DE,Ziesar,12.3515988904282,52.2488999054982
14797,DE,Lehnin,12.7128833451354,52.3259104291654
14798,DE,Pritzerbe,12.4691153849184,52.5071321817764
14806,DE,Belzig,12.586236379233,52.1724434545699
14822,DE,Brück,12.783221488068,52.1962761741574
14823,DE,Niemegk,12.6420583119423,52.065567807993
14827,DE,Wiesenburg,12.4123821927229,52.0997768410226
14828,DE,Görzke,12.3311902188641,52.1668912276521
14913,DE,Jüterbog,13.1015194843853,51.9719573238802
14929,DE,Treuenbrietzen,12.8787566839984,52.0849295007413
14943,DE,Luckenwalde,13.1699614152999,52.1240916641561
14947,DE,Nuthe-Urstromtal,13.2085011516254,52.1015016215448
14959,DE,Trebbin,13.184359475549,52.2184330568592
14974,DE,Ludwigsfelde,13.2557996596041,52.2850357247529
14979,DE,Großbeeren,13.3246342495825,52.3679635462697
15230,DE,Frankfurt / Oder,14.5572841072679,52.3384289439601
15232,DE,Frankfurt / Oder,14.5477397528822,52.3307493336114
15234,DE,Frankfurt / Oder,14.4793037230205,52.3565913525802
15236,DE,Frankfurt / Oder,14.4313314122836,52.3304136848845
15295,DE,Brieskow-Finkenheerd,14.6100000863283,52.2398564967886
15299,DE,Müllrose,14.4162000808709,52.2056932440591
15306,DE,Seelow,14.3640331467927,52.5123513068349
15320,DE,Neuhardenberg,14.2414056588762,52.6125475488549
15324,DE,Letschin,14.3729553005145,52.6713970334826
15326,DE,Lebus,14.5021612756632,52.4455758884599
15328,DE,Manschnow,14.5359028368767,52.5692367852353
15344,DE,Strausberg,13.9048138153528,52.5689760710676
15345,DE,Strausberg,13.9110392055143,52.5733016505788
15366,DE,Neuenhagen bei Berlin,13.675081198747,52.5291011348921
15370,DE,Fredersdorf-Vogelsdorf,13.778203879863,52.5273144288669
15374,DE,Müncheberg,14.1249769828138,52.521820559767
15377,DE,Buckow / Märkische Schweiz,14.0896658686615,52.5928311210661
15378,DE,Hennickendorf,13.8561546551091,52.493511070537
15517,DE,Fürstenwalde / Spree,14.0620401842487,52.377454013197
15518,DE,Fürstenwalde / Spree,14.1268730519351,52.3871139703248
15526,DE,Bad Saarow-Pieskow,14.0789430404515,52.283790314644
15528,DE,Spreenhagen,13.8739627617431,52.3405617771858
15537,DE,Erkner,13.7686930247532,52.3912701930056
15562,DE,Rüdersdorf bei Berlin,13.7992995410375,52.4757581906646
15566,DE,Schöneiche bei Berlin,13.7099122823978,52.4826102325351
15569,DE,Woltersdorf,13.7649909298295,52.4512866973469
15711,DE,Königs Wusterhausen,13.6191779933896,52.2849959625367
15712,DE,Königs Wusterhausen,13.6191779933896,52.2849959625367
15713,DE,Königs Wusterhausen,13.6191779933896,52.2849959625367
15732,DE,Schulzendorf bei Eichenwade,13.5710227316521,52.3644489024626
15738,DE,Zeuthen,13.616577119793,52.3470636787626
15741,DE,Bestensee,13.6740678388627,52.2239643068489
15745,DE,Wildau,13.625892439976,52.3228356515324
15746,DE,Groß Köris,13.6807274896088,52.1780550947711
15748,DE,Märkisch Buchholz,13.8156105004012,52.1336679064316
15749,DE,Mittenwalde,13.5419157365541,52.2793155170588
15751,DE,Niederlehme,13.6653207063329,52.3225527420744
15752,DE,Prieros,13.8108685612337,52.2180552873465
15754,DE,Senzig,13.7682680752299,52.2791336482709
15755,DE,Teupitz,13.6000308903553,52.1349119278004
15757,DE,Halbe,13.7118569147451,52.0992089142475
15758,DE,Zernsdorf,13.7163560197842,52.3074915861198
15806,DE,Zossen,13.4103214048013,52.2275234006708
15827,DE,Blankenfelde,13.4147363910625,52.3265687967453
15831,DE,Mahlow,13.4368886433263,52.3571641992514
15834,DE,Rangsdorf,13.4415858151684,52.2937367845107
15837,DE,Baruth,13.513591658141,52.0469377705885
15838,DE,Wünsdorf,13.4450741434717,52.140401376977
15848,DE,Beeskow,14.2434977835628,52.166771242908
15859,DE,Storkow,13.9107383972654,52.2165211697737
15864,DE,Wendisch Rietz,14.0512342812059,52.1977341919849
15868,DE,Lieberose,14.3521947032653,52.0166299949777
15890,DE,Eisenhüttenstadt,14.5637415186609,52.1626717893358
15898,DE,Neuzelle,14.6212420539656,52.0607946571483
15907,DE,Lübben / Spreewald,13.8939732962564,51.9461193626168
15910,DE,Schönwalde,13.8646577996034,52.0389254702396
15913,DE,Straupitz,14.1226261949613,51.9635871093603
15926,DE,Luckau,13.6794229117005,51.8304682208038
15936,DE,Dahme,13.4402454239864,51.8910968157737
15938,DE,Golßen,13.6172425228561,51.9445108102792
16225,DE,Eberswalde,13.8174272036519,52.8480791394761
16227,DE,Eberswalde,13.7407525305434,52.8415136298062
16230,DE,Eberswalde,13.8286383458967,52.84807825009
16244,DE,Finowfurt,13.6812378292993,52.8571381111717
16247,DE,Joachimsthal,13.7674734835382,52.9812420892054
16248,DE,Oderberg,14.0352444214291,52.8890852245885
16259,DE,Bad Freienwalde,14.032541377837,52.7626801640553
16269,DE,Wriezen,14.1058025037462,52.7018023933905
16278,DE,Angermünde,14.0103636341661,53.0547147791411
16303,DE,Schwedt / Oder,14.2721243031983,53.0978777464486
16306,DE,Schwedt / Oder,14.2034272967878,53.1596364360857
16307,DE,Gartz / Oder,14.3657565223917,53.2588512129152
16321,DE,Bernau bei Berlin,13.5872750617765,52.6876971223549
16341,DE,Zepernick,13.5367166873647,52.6469661507118
16348,DE,Klosterfelde,13.543525287226,52.8801376548452
16352,DE,Basdorf,13.4496025557329,52.6906953962239
16356,DE,Werneuchen,13.6965804900872,52.6320037035787
16359,DE,Biesenthal,13.6003141638049,52.7725734073638
16515,DE,Oranienburg,13.2607407059652,52.7997450937298
16540,DE,Hohen Neuendorf bei Berlin,13.2762875854803,52.6679008901989
16547,DE,Birkenwerder bei Berlin,13.3085641305874,52.7048782801241
16548,DE,Glienicke / Nordbahn,13.3322790743032,52.6348360772284
16552,DE,Schildow,13.3726782062384,52.6416185269723
16556,DE,Hohen Neuendorf bei Berlin,13.2804313781893,52.7215167694856
16559,DE,Liebenwalde,13.4270977571313,52.859118282296
16562,DE,Hohen Neuendorf bei Berlin,13.331570035941,52.6857891149395
16565,DE,Lehnitz / Nordbahn,13.2935959620201,52.7501236128084
16567,DE,Mühlenbeck,13.3666368014563,52.6708543639144
16727,DE,Velten,13.1549669183663,52.6892274109768
16761,DE,Hennigsdorf bei Berlin,13.211634823233,52.6358821818161
16766,DE,Kremmen,13.0255808896444,52.769622253714
16767,DE,Leegebruch,13.1748576242881,52.7447138183359
16775,DE,Gransee,13.1775473858676,53.0163364888923
16792,DE,Zehdenick,13.3902582040324,52.9965402436591
16798,DE,Fürstenberg,13.1674628105466,53.1915774026942
16816,DE,Neuruppin,12.8060095391581,52.902410577139
16818,DE,Neuruppin,12.7612381323298,52.9469604020611
16827,DE,Neuruppin,12.8590108996118,52.9854297871643
16831,DE,Rheinsberg,12.9031543212196,53.1121199640013
16833,DE,Fehrbellin,12.7837874060263,52.7802134718117
16835,DE,Lindow,12.9827498723411,52.9492830805124
16837,DE,Flecken Zechlin,12.7536635947909,53.1575947379465
16845,DE,Neustadt / Dosse,12.4541845030958,52.8534452508757
16866,DE,Kyritz,12.3257400146346,52.9829649496039
16868,DE,Wusterhausen / Dosse,12.4928415924044,52.908558878132
16909,DE,Wittstock,12.5096395693223,53.155323072895
16918,DE,Freyenstein,12.3627821937989,53.2857383859263
16928,DE,Pritzwalk,12.1993567363365,53.1269623848234
16945,DE,Meyenburg,12.2315057647236,53.2826411425833
16949,DE,Putlitz,12.0459583547724,53.2626197604536
17033,DE,Neubrandenburg,13.2271388230747,53.5331079594451
17034,DE,Neubrandenburg,13.2922101696279,53.5748317770502
17036,DE,Neubrandenburg,13.3146290510676,53.5464001845729
17039,DE,Brunn,13.3228835525562,53.6129080623184
17087,DE,Altentreptow,13.2412409057052,53.6945591406401
17089,DE,Burow,13.2967744957368,53.7611665413565
17091,DE,Rosenow,13.1080936053383,53.6593717367504
17094,DE,Burg Stargard,13.327644460318,53.4872692682989
17098,DE,Friedland,13.5602548099751,53.6751089200986
17099,DE,Kotelow,13.5533660458881,53.6490594672743
17109,DE,Demmin,13.033738150847,53.9169170374833
17111,DE,Demmin,13.0344588333323,53.8565507644871
17121,DE,Loitz,13.165822679181,53.9930668882168
17126,DE,Jarmen,13.34679262439,53.9115373612889
17129,DE,Bentzin,13.2706974052043,53.887839426511
17139,DE,Malchin,12.7618592520332,53.7189750188471
17153,DE,Stavenhagen,12.9263694797006,53.6761378956751
17154,DE,Neukalen,12.778898142275,53.8234676146101
17159,DE,Dargun,12.8481450798944,53.9144307708355
17166,DE,Teterow,12.5650942339328,53.7484228467837
17168,DE,Jördenstorf,12.5816269700884,53.8680640914064
17179,DE,Gnoien,12.6775823193357,53.96033833562
17192,DE,Waren / Müritz,12.7490943292718,53.5040459463369
17194,DE,Grabowhöfe,12.5443294591471,53.594472627719
17207,DE,Röbel / Müritz,12.6254459955304,53.3771383120758
17209,DE,Wredenhagen,12.4881193237949,53.3453201928986
17213,DE,Malchow,12.4569426402462,53.4644551773507
17214,DE,Nossentiner Hütte,12.3767288288413,53.5352049909767
17217,DE,Penzlin,13.0789570865212,53.5119368328326
17219,DE,Möllenhagen,12.9411737522012,53.5266953286413
17235,DE,Neustrelitz,13.0723640616157,53.3407791854821
17237,DE,Blankensee,13.1402654612239,53.3782188198223
17248,DE,Rechlin,12.7641297358816,53.3315585027753
17252,DE,Mirow,12.8459092004033,53.2838577750849
17255,DE,Wesenberg,12.9883580980478,53.241518740626
17258,DE,Feldberg,13.388566118898,53.3189038433214
17259,DE,Lichtenberg,13.4899845328804,53.3866891518342
17268,DE,Templin,13.5886719225343,53.1454336776688
17279,DE,Lychen,13.3266139747752,53.2135968333748
17291,DE,Prenzlau,13.862881162965,53.3068516084068
17309,DE,Pasewalk,14.0229466424974,53.5182481523229
17321,DE,Löcknitz,14.2294127516452,53.4867905110166
17322,DE,Grambow,14.2889041060304,53.4588610111357
17326,DE,Brüssow,14.1634787932435,53.3900151077791
17328,DE,Penkun,14.2174653820244,53.2962896809143
17329,DE,Nadrensee,14.3119932116479,53.3426862953684
17335,DE,Strasburg,13.7533930012528,53.5197051846782
17337,DE,Trebenow,13.7804711864141,53.5002301472043
17348,DE,Woldegk,13.6001633205388,53.4691277360132
17349,DE,Groß-Miltzow,13.5296293653936,53.5099995797203
17358,DE,Torgelow,14.0352165360957,53.6193703958107
17367,DE,Eggesin,14.1239283765797,53.6590308958027
17373,DE,Ueckermünde,14.0489114485435,53.7341224793126
17375,DE,Ueckermünde,14.1163823391225,53.696327709446
17379,DE,Ferdinandshof,13.8488401061973,53.6656340806527
17389,DE,Anklam,13.7095813373948,53.8517739740502
17390,DE,Klein Bünzow,13.6692691831774,53.9135281706609
17391,DE,Krien,13.4746124375113,53.8417232898444
17392,DE,Spantekow,13.5816370416746,53.7668431173882
17398,DE,Ducherow,13.7767915680984,53.7828094584839
17406,DE,Usedom,13.9432162866158,53.9046893145671
17419,DE,Ahlbeck,14.133997281718,53.9029587238945
17424,DE,Heringsdorf,14.1426124183512,53.9468181513695
17429,DE,Bansin,14.064442259677,53.9474042866684
17438,DE,Wolgast,13.769829771327,54.0613578235931
17440,DE,Kröslin,13.784735904107,54.008289461398
17449,DE,Karlshagen,13.8181250326159,54.1182627474946
17454,DE,Zinnowitz,13.9025686622968,54.074488847608
17459,DE,Koserow,14.031003400139,54.028459923315
17489,DE,Greifswald,13.3789308381051,54.0893986570004
17491,DE,Greifswald,13.4276721437954,54.0747845879181
17493,DE,Greifswald,13.4534969624576,54.0946810178643
17495,DE,Karlsburg,13.5485645194842,53.9913981862588
17498,DE,Neuenkirchen,13.3508915464097,54.0796071389709
17506,DE,Gützkow,13.420582732615,53.9482058308276
17509,DE,Lubmin,13.6142483126289,54.0908294393879
18055,DE,Rostock,12.1703277843102,54.0848977914397
18057,DE,Rostock,12.1080682133004,54.0881122114559
18059,DE,Rostock,12.0882235065433,54.0291875940057
18069,DE,Rostock,12.0447794120369,54.1021219475795
18106,DE,Rostock,12.0607885240714,54.1280551028529
18107,DE,Rostock,12.0191782168566,54.1500433687064
18109,DE,Rostock,12.0607937500144,54.154331981584
18119,DE,Rostock,12.0599492148265,54.1713657384964
18146,DE,Rostock,12.1900003125827,54.1795273599157
18147,DE,Rostock,12.1275243724101,54.1277997856483
18181,DE,Graal-Müritz,12.2388380161575,54.244739835033
18182,DE,Gelbensande,12.277758978309,54.1800408387318
18184,DE,Broderstorf,12.2898978752797,54.1128088444916
18190,DE,Sanitz,12.385077377218,54.0700166098942
18195,DE,Tessin,12.4990296460119,54.0289998081385
18196,DE,Dummerstorf,12.2326961949312,54.0136906867312
18198,DE,Kritzmow,12.0341839487424,54.0585255044506
18209,DE,Bad Doberan,11.8850227428771,54.1058032425764
18211,DE,Börgerende-Rethwisch,11.9286748544946,54.1134150673406
18225,DE,Kühlungsborn,11.7442258867183,54.1420110978154
18230,DE,Rerik,11.6843880157845,54.0929247340002
18233,DE,Neubukow,11.6705239804314,54.0118302657471
18236,DE,Kröpelin,11.798101943265,54.0387750327806
18239,DE,Satow,11.9081370365165,54.0012763164007
18246,DE,Bützow,11.9227432566081,53.876717865473
18249,DE,Warnow,11.9116129750132,53.8124767026796
18258,DE,Schwaan,12.0890002924519,53.9321478898416
18273,DE,Güstrow,12.2064689844871,53.7930779597561
18276,DE,Güstrow,12.1604677810564,53.7747374180448
18279,DE,Lalendorf,12.395941188789,53.7548430719778
18292,DE,Krakow am See,12.3018873307714,53.6588915393615
18299,DE,Laage,12.3389082474608,53.9195246035486
18311,DE,Ribnitz-Damgarten,12.4352315180236,54.2409588858064
18314,DE,Löbnitz,12.6755537472601,54.3139011163121
18317,DE,Saal,12.5227014985935,54.3117554157982
18320,DE,Trinwillershagen,12.61841476326,54.2452742366941
18334,DE,Bad Sülze,12.6452577379679,54.1300105394622
18337,DE,Marlow,12.4781399290984,54.1678646941724
18347,DE,Dierhagen,12.3630916165539,54.306524680082
18356,DE,Barth,12.6779078889773,54.3643597207419
18374,DE,Zingst am Darß,12.7746565431228,54.4312120605655
18375,DE,Prerow am Darß,12.5334573713761,54.4250915177347
18435,DE,Stralsund,13.0670713107225,54.3311354913436
18437,DE,Stralsund,13.0522625016828,54.3019834895463
18439,DE,Stralsund,13.1147692454015,54.2818868572047
18442,DE,Niepars,12.9502504249012,54.2851766321812
18445,DE,Prohn,12.9843189938941,54.3776506283368
18461,DE,Franzburg,12.8542778538088,54.1788656319733
18465,DE,Tribsees,12.7801802969394,54.1147086222369
18469,DE,Velgast,12.8166457272738,54.2697678523404
18507,DE,Grimmen,13.0320723952178,54.1025484738706
18510,DE,Wittenhagen,13.0477176417413,54.1836678717724
18513,DE,Glewitz,12.8974602319751,54.0555126295404
18516,DE,Rakow,13.1288605338991,54.0736549746418
18519,DE,Miltzow,13.2131016815643,54.1887521060642
18528,DE,Bergen / Rügen,13.4365089252637,54.4355907323685
18546,DE,Sassnitz,13.6160126242451,54.5268642201548
18551,DE,Sagard,13.5442245534341,54.5541395709958
18556,DE,Dranske,13.317555965776,54.6302650553017
18565,DE,Insel Hiddensee,13.088721363808,54.5329472179638
18569,DE,Gingst,13.2535247964154,54.4904867347747
18573,DE,Samtens,13.24216814062,54.3614747458701
18574,DE,Garz / Rügen,13.3103809515278,54.2975258309496
18581,DE,Putbus,13.4640456924253,54.3499980996215
18586,DE,Sellin,13.6755503797491,54.3438588222597
18609,DE,Binz,13.5930603266215,54.4194653165881
19053,DE,Schwerin,11.4081221498717,53.6247393347882
19055,DE,Schwerin,11.4356781728688,53.6577581258256
19057,DE,Schwerin,11.3497453888959,53.6517809563862
19059,DE,Schwerin,11.3920850320353,53.6360865636739
19061,DE,Schwerin,11.4110439798182,53.6021672992816
19063,DE,Schwerin,11.4498483787143,53.5808291697605
19065,DE,Pinnow,11.5472057078131,53.6120929529336
19067,DE,Leezen,11.5364988975265,53.699993679999
19069,DE,Lübstorf,11.3962781991882,53.7257160570314
19071,DE,Brüsewitz,11.2778800983847,53.6684379630295
19073,DE,Wittenförden,11.2765309943002,53.5825375087999
19075,DE,Pampow,11.3372364609726,53.5466168592602
19077,DE,Rastow,11.4127733991452,53.4761669862282
19079,DE,Banzkow,11.5323474563138,53.5118160540129
19086,DE,Plate,11.5024010486371,53.555008878254
19089,DE,Crivitz,11.685983358463,53.5808594126074
19205,DE,Gadebusch,11.1094132527168,53.6948682702779
19209,DE,Lützow,11.1735314207115,53.6280447637937
19217,DE,Rehna,10.964350663412,53.7577093650216
19230,DE,Hagenow,11.2335897472635,53.4140562377596
19243,DE,Wittenburg,11.0829299586961,53.5196187815736
19246,DE,Zarrentin,10.9373511589411,53.5433738021261
19249,DE,Lübtheen,11.0897409263582,53.29826305746
19258,DE,Boizenburg / Elbe,10.7705642857878,53.4215254575051
19260,DE,Vellahn,10.9371183477776,53.4155522772773
19273,DE,Amt Neuhaus,10.9621016305795,53.2711215925841
19288,DE,Ludwigslust,11.421000261905,53.3371046815249
19294,DE,Neu Kaliß,11.3918743415698,53.2133397955533
19300,DE,Grabow,11.6101135943473,53.2537773249548
19303,DE,Dömitz,11.225068580613,53.1966688110491
19306,DE,Neustadt-Glewe,11.6017181212962,53.3970008568134
19309,DE,Lenzen / Elbe,11.4975120439306,53.0934526959019
19322,DE,Wittenberge,11.7810967038332,52.9960619661958
19336,DE,Bad Wilsnack,11.9734831627131,52.9665848299302
19339,DE,Glöwen,12.1082033511307,52.9245345171993
19348,DE,Perleberg,11.8982435312137,53.1208090612663
19357,DE,Karstädt,11.7084631611587,53.1785798479007
19370,DE,Parchim,11.8392939204948,53.4288566487117
19372,DE,Spornitz,11.7898051647571,53.3682961972848
19374,DE,Mestlin,11.8192306533909,53.5272491696997
19376,DE,Siggelkow,11.9466049481254,53.3479906316662
19386,DE,Lübz,12.0694204186706,53.4612368094461
19395,DE,Plau am See,12.2457800932773,53.4445217513226
19399,DE,Goldberg,12.0936314559524,53.590092096924
19406,DE,Sternberg,11.8926003751161,53.685944901046
19412,DE,Brüel,11.6851651287178,53.7177204790688
19417,DE,Warin,11.6712549478736,53.8014726605289
20095,DE,Hamburg,10.0011036114924,53.5541579534295
20097,DE,Hamburg,10.0201629259622,53.5497036579225
20099,DE,Hamburg,10.0117770071661,53.5608014977315
20144,DE,Hamburg,9.97563270432737,53.5770542614409
20146,DE,Hamburg,9.97817127903554,53.5705630442094
20148,DE,Hamburg,9.99638738026101,53.569404913505
20149,DE,Hamburg,9.99213054503237,53.5810917781013
20249,DE,Hamburg,9.98846309698408,53.5922265573093
20251,DE,Hamburg,9.97786162862758,53.5950063794279
20253,DE,Hamburg,9.9667910626491,53.5829096512424
20255,DE,Hamburg,9.95207415314126,53.5814915885213
20257,DE,Hamburg,9.94267279602395,53.5791068622279
20259,DE,Hamburg,9.9571927316967,53.5750216386226
20354,DE,Hamburg,9.98922726457134,53.5585305315834
20355,DE,Hamburg,9.97895631731865,53.5582570520618
20357,DE,Hamburg,9.96630343988492,53.5650853789351
20359,DE,Hamburg,9.96514054751631,53.5533063931018
20457,DE,Hamburg,9.97861695950088,53.5357132572291
20459,DE,Hamburg,9.97696507576157,53.5478828366101
20535,DE,Hamburg,10.049667677985,53.5620622217634
20537,DE,Hamburg,10.0490560699189,53.5524500366439
20539,DE,Hamburg,10.0464614178234,53.5288663536849
21029,DE,Hamburg,10.2289879761237,53.4868805584946
21031,DE,Hamburg,10.1959736562534,53.5096305493372
21033,DE,Hamburg,10.1627693516923,53.5081930050549
21035,DE,Hamburg,10.1506288142704,53.494515244122
21037,DE,Hamburg,10.1441005302125,53.4505807480066
21039,DE,Hamburg,10.2618889527051,53.4553219746653
21073,DE,Hamburg,9.97167060278399,53.4602951058057
21075,DE,Hamburg,9.93273139409429,53.46477372758
21077,DE,Hamburg,9.94972307259948,53.4390332377638
21079,DE,Hamburg,9.9757404657296,53.4687391181985
21107,DE,Hamburg,9.97369011258835,53.5045708924949
21109,DE,Hamburg,10.0279379917079,53.4940526744127
21129,DE,Hamburg,9.8488219323811,53.5244225100365
21147,DE,Hamburg,9.8516107736005,53.4865538506483
21149,DE,Hamburg,9.85717097768148,53.4634866455115
21217,DE,Seevetal,10.0454608089677,53.4281535734653
21218,DE,Seevetal,9.97129610875584,53.3906700036207
21220,DE,Seevetal,10.0462929924741,53.3617162796511
21224,DE,Rosengarten,9.89177230327607,53.3981793394632
21227,DE,Bendestorf,9.9744570925858,53.3364444117905
21228,DE,Harmstorf,9.98667341465993,53.3533466253824
21244,DE,Buchholz in der Nordheide,9.85798983613957,53.3237908317596
21255,DE,Tostedt,9.71036805200857,53.28171011818
21256,DE,Handeloh,9.84154124987021,53.2504086567774
21258,DE,Heidenau,9.62872246998637,53.312948683368
21259,DE,Otter,9.7440554737297,53.2291877285569
21261,DE,Welle,9.7953151154274,53.2357639540108
21266,DE,Jesteburg,9.93321306991339,53.3085302399193
21271,DE,Hanstedt,9.98527127831618,53.2604150824753
21272,DE,Egestorf,10.0497936003767,53.1823445406175
21274,DE,Undeloh,9.9251090264564,53.2096114549812
21279,DE,Hollenstedt,9.74173190601125,53.3659380748969
21335,DE,Lüneburg,10.3831816133667,53.2208386297174
21337,DE,Lüneburg,10.4557085368685,53.246737045937
21339,DE,Lüneburg,10.3893091294118,53.2653064032605
21354,DE,Bleckede,10.7314455253178,53.2943843808051
21357,DE,Bardowick,10.380764217473,53.322975266629
21358,DE,Mechtersen,10.3001581853375,53.2830702464718
21360,DE,Vögelsen,10.3385762209226,53.2852653068952
21365,DE,Adendorf,10.453992934281,53.2892625592832
21368,DE,Dahlenburg,10.721324804322,53.1887642177239
21369,DE,Nahrendorf,10.8370662579775,53.1706751045697
21371,DE,Tosterglope,10.8233076256486,53.2089768674603
21376,DE,Salzhausen,10.142091980144,53.2191618785519
21379,DE,Scharnebeck,10.5399943626856,53.3068217746576
21380,DE,Artlenburg,10.4857064584491,53.3662675302443
21382,DE,Brietlingen,10.4482632590002,53.3383595726998
21385,DE,Amelinghausen,10.1875629067828,53.1150275018243
21386,DE,Betzendorf,10.3039742667465,53.134524250366
21388,DE,Soderstorf,10.1343054170261,53.1481395381713
21391,DE,Reppenstedt,10.3282313521604,53.25766490359
21394,DE,Kirchgellersen,10.2762846048751,53.2291988968457
21395,DE,Tespe,10.4155812652373,53.3838340366972
21397,DE,Barendorf,10.5503829176086,53.2061742461417
21398,DE,Neetze,10.6341976785909,53.2774071031165
21400,DE,Reinstorf,10.5707918168908,53.242627991386
21401,DE,Thomasburg,10.6421543648952,53.2222334572735
21403,DE,Wendisch Evern,10.4754895640196,53.2124627125822
21406,DE,Melbeck,10.3848727475508,53.158801529144
21407,DE,Deutsch Evern,10.4416536154705,53.1937601868258
21409,DE,Embsen,10.326446563592,53.1811186399569
21423,DE,Winsen (Luhe),10.2245448541885,53.3626420088732
21435,DE,Stelle,10.1090681173465,53.3836540004911
21436,DE,Marschacht,10.3536190350229,53.3957796840125
21438,DE,Brackel,10.0571192743936,53.3053664143898
21439,DE,Marxen,10.0089667901821,53.3136125364132
21441,DE,Garstedt,10.1660308389707,53.2843821428009
21442,DE,Toppenstedt,10.098571360707,53.2749606372937
21444,DE,Vierhöfen,10.2205033277904,53.268981193284
21445,DE,Wulfsen,10.1348246322983,53.3045485255546
21447,DE,Handorf,10.3399721840741,53.3448844613739
21449,DE,Radbruch,10.2670678977276,53.3112285573129
21465,DE,Reinbek,10.26446452034,53.5336190208812
21481,DE,Lauenburg / Elbe,10.5243613851584,53.3885248339488
21483,DE,Gülzow,10.5399059608702,53.4316863587463
21493,DE,Schwarzenbek,10.5091881200995,53.5516714933419
21502,DE,Geesthacht,10.4020592804612,53.4424639536998
21509,DE,Glinde,10.2138614745206,53.5430018762062
21514,DE,Büchen,10.6524984756141,53.5084911162622
21516,DE,Müssen,10.5821558662757,53.523200203796
21521,DE,Aumühle,10.3645560649844,53.5287958962066
21522,DE,Hohnstorf (Elbe),10.5824160906476,53.3544486710904
21524,DE,Brunstorf,10.4279169301365,53.4973129805487
21526,DE,Hohenhorn,10.3732529743,53.4756777730177
21527,DE,Kollow,10.4630189207499,53.4722579381436
21529,DE,Kröppelshagen-Fahrendorf,10.3316264836924,53.4828618375394
21614,DE,Buxtehude,9.69158914791978,53.4661983935898
21629,DE,Neu Wulmstorf,9.79536898048992,53.4340112894078
21635,DE,Jork,9.70197544356901,53.533207344849
21640,DE,Horneburg,9.57779483889085,53.5039685057822
21641,DE,Apensen,9.59860471929672,53.4430574925632
21643,DE,Beckdorf,9.62173252378091,53.4148727180613
21644,DE,Sauensiek,9.56088537907679,53.3911849101479
21646,DE,Halvesbostel,9.6107895910858,53.3533034936197
21647,DE,Moisburg,9.70861143915901,53.4062538589863
21649,DE,Regesbostel,9.65385214381334,53.3806616828813
21680,DE,Stade,9.4778097729311,53.5915812103949
21682,DE,Stade,9.45686464552907,53.6094547890692
21683,DE,Stade,9.46971545980872,53.6458112938082
21684,DE,Stade,9.47246650689103,53.5695184439501
21698,DE,Harsefeld,9.46088969966277,53.454734106771
21702,DE,Ahlerstedt,9.43913505828566,53.3943137549496
21706,DE,Drochtersen,9.37646989031958,53.716647388063
21709,DE,Himmelpforten,9.29629905770825,53.6166081809138
21710,DE,Engelschoff,9.31492712032831,53.6639777962125
21712,DE,Großenwörden,9.26732808352057,53.685453477886
21714,DE,Hammah,9.37145044260375,53.6276478994925
21717,DE,Fredenbeck,9.41667088595484,53.5285273739692
21720,DE,Grünendeich,9.60383458392127,53.561824508468
21723,DE,Hollern-Twielenfleth,9.54135505746958,53.599150091662
21726,DE,Oldendorf,9.26169677322406,53.5777365052096
21727,DE,Estorf,9.19768566391862,53.5638717425364
21729,DE,Freiburg (Elbe),9.28072151527638,53.8300900137818
21730,DE,Balje,9.10898998420137,53.8354447309314
21732,DE,Krummendeich,9.20630304763744,53.8387259971036
21734,DE,Oederquart,9.22997240988906,53.7894660767238
21737,DE,Wischhafen,9.30920435524689,53.7715084466205
21739,DE,Dollern,9.53600331338228,53.5415675844554
21745,DE,Hemmoor,9.14376840030753,53.6891747481889
21755,DE,Hechthausen,9.21875103339279,53.6474407591615
21756,DE,Osten,9.22096629984845,53.7298820542573
21762,DE,Otterndorf,8.9088975172302,53.8052911438774
21763,DE,Neuenkirchen,8.89444122730018,53.7752478933963
21765,DE,Nordleda,8.81288509610658,53.7695761045531
21769,DE,Lamstedt,9.07577231467988,53.6137315904684
21770,DE,Mittelstenahe,9.0314601708391,53.6641907685894
21772,DE,Stinstedt,8.97082986488778,53.6581669004724
21775,DE,Ihlienworth,8.89369845772665,53.7055523983962
21776,DE,Wanna,8.7797742025502,53.7265905847709
21781,DE,Cadenberge,9.04302789846075,53.7729302870625
21782,DE,Bülkau,8.98186386220975,53.7402037136135
21784,DE,Geversdorf,9.09231410599237,53.7946203314927
21785,DE,Neuhaus (Oste),8.99709722227075,53.8091523047479
21787,DE,Oberndorf,9.15227241934434,53.7541162223366
21789,DE,Wingst,9.04990525498368,53.7364165325052
22041,DE,Hamburg,10.0763055583443,53.5783435735629
22043,DE,Hamburg,10.1034718078337,53.5722704723589
22045,DE,Hamburg,10.128308116317,53.5859692758302
22047,DE,Hamburg,10.0918981142799,53.5909416809929
22049,DE,Hamburg,10.0671504140179,53.5889772703104
22081,DE,Hamburg,10.0432270264886,53.5786038795972
22083,DE,Hamburg,10.0300232100965,53.5820617287427
22085,DE,Hamburg,10.0151758890645,53.5746546949603
22087,DE,Hamburg,10.0247288490807,53.5651225938106
22089,DE,Hamburg,10.0471028917706,53.5706566044253
22111,DE,Hamburg,10.0826654873695,53.5506987178099
22113,DE,Oststeinbek,10.130727223524,53.5291891387848
22115,DE,Hamburg,10.1478013478737,53.5331511103656
22117,DE,Hamburg,10.1348268667275,53.5517287942189
22119,DE,Hamburg,10.1057359221478,53.5594442844936
22143,DE,Hamburg,10.1692508729068,53.6088011044818
22145,DE,Hamburg,10.2099960288534,53.6199642442417
22147,DE,Hamburg,10.136087992015,53.6142832030077
22149,DE,Hamburg,10.1638831027064,53.5926284366798
22159,DE,Hamburg,10.1176588061564,53.6163472982688
22175,DE,Hamburg,10.0983832926853,53.629113861333
22177,DE,Hamburg,10.0684996732132,53.6107572494498
22179,DE,Hamburg,10.082201042642,53.6080655654034
22297,DE,Hamburg,10.0121956709259,53.6114957788596
22299,DE,Hamburg,10.0013091571873,53.59793616034
22301,DE,Hamburg,10.0049596319245,53.5864582298986
22303,DE,Hamburg,10.022194514136,53.5942137105173
22305,DE,Hamburg,10.0496917554834,53.5917137978585
22307,DE,Hamburg,10.0433828887601,53.6017996321635
22309,DE,Hamburg,10.0553563410661,53.6146294037258
22335,DE,Hamburg,9.99782201582731,53.6319708596545
22337,DE,Hamburg,10.0495382316758,53.6266061519944
22339,DE,Hamburg,10.0403153062008,53.6459607954472
22359,DE,Hamburg,10.1646448381846,53.6553171320639
22391,DE,Hamburg,10.0792967252668,53.6440953055207
22393,DE,Hamburg,10.1227616695889,53.6555424905547
22395,DE,Hamburg,10.1144633087276,53.6749861571098
22397,DE,Hamburg,10.1241699161448,53.7069962879944
22399,DE,Hamburg,10.0708140414418,53.6674135032343
22415,DE,Hamburg,10.0061972896283,53.6502276597352
22417,DE,Hamburg,10.034496061538,53.6706521743746
22419,DE,Hamburg,10.0032593870535,53.6689472997327
22453,DE,Hamburg,9.96948162900808,53.6209798282177
22455,DE,Hamburg,9.94908031811134,53.6442783449565
22457,DE,Hamburg,9.91120429536597,53.641559299308
22459,DE,Hamburg,9.93465608902931,53.628036111823
22523,DE,Hamburg,9.89810159047752,53.6160424705317
22525,DE,Hamburg,9.91191131239418,53.586960810649
22527,DE,Hamburg,9.92854766285478,53.6024101940983
22529,DE,Hamburg,9.95575552161142,53.5987359360694
22547,DE,Hamburg,9.87845171524381,53.601647246289
22549,DE,Hamburg,9.85492636026811,53.5878568279005
22559,DE,Hamburg,9.76045071944418,53.5902916744523
22587,DE,Hamburg,9.79933990855871,53.5652604670002
22589,DE,Hamburg,9.80714900203294,53.585538519413
22605,DE,Hamburg,9.88701495556631,53.5528186882808
22607,DE,Hamburg,9.87998662134869,53.5718653115723
22609,DE,Hamburg,9.85054803634173,53.5614557360185
22761,DE,Hamburg,9.91241594212577,53.5699918540556
22763,DE,Hamburg,9.91171139097239,53.5561263694686
22765,DE,Hamburg,9.93250170220483,53.5572545697338
22767,DE,Hamburg,9.94759359060571,53.5531753410706
22769,DE,Hamburg,9.94504765899396,53.5686648371175
22844,DE,Norderstedt,10.0000540571082,53.7298479228228
22846,DE,Norderstedt,9.97026314874422,53.7083493412342
22848,DE,Norderstedt,9.96495696062476,53.6713858545773
22850,DE,Norderstedt,9.994846871393,53.6920834882223
22851,DE,Norderstedt,10.0427094611288,53.7016845704656
22869,DE,Schenefeld,9.82549112317564,53.6046845775091
22880,DE,Wedel (Holstein),9.70351196663682,53.591822533504
22885,DE,Barsbüttel,10.2136512362735,53.5763865588465
22889,DE,Tangstedt,10.0841218996323,53.7423038226746
22926,DE,Ahrensburg,10.2358265919012,53.6709667870744
22927,DE,Großhansdorf,10.2821073284452,53.6674441124663
22929,DE,Delingsdorf,10.4281479462032,53.6255068082868
22941,DE,Bargteheide,10.2525798240276,53.7279604646681
22946,DE,Trittau,10.3695685142185,53.6104197058915
22949,DE,Ammersbek,10.1925237708671,53.6963294463435
22952,DE,Lütjensee,10.3612254451413,53.6544198272147
22955,DE,Hoisdorf,10.3192206987878,53.6635211755766
22956,DE,Grönwohld,10.4111776008829,53.6488150087936
22958,DE,Kuddewörde,10.4086243417181,53.5842457502691
22959,DE,Linau,10.4725554667291,53.6478322827931
22961,DE,Hoisdorf,10.336477442903,53.6784721927591
22962,DE,Siek,10.283467480373,53.6358155639797
22964,DE,Steinburg,10.3977412593435,53.7101226019168
22965,DE,Todendorf,10.345945136645,53.6980019439249
22967,DE,Tremsbüttel,10.314811271772,53.7468196715107
22969,DE,Witzhave,10.3296739962325,53.5756268828908
23552,DE,Lübeck,10.6863863793921,53.8689914177723
23554,DE,Lübeck,10.6788226040248,53.8919890381801
23556,DE,Lübeck,10.6135832534357,53.8756646154205
23558,DE,Lübeck,10.6594524236662,53.8592650009203
23560,DE,Lübeck,10.6358930073554,53.8162505404879
23562,DE,Lübeck,10.7160757630538,53.8261055497129
23564,DE,Lübeck,10.7201130973483,53.8539516122476
23566,DE,Lübeck,10.737477220216,53.8761363281056
23568,DE,Lübeck,10.745686071226,53.8939399905135
23569,DE,Lübeck,10.800912260484,53.9188479325388
23570,DE,Lübeck,10.8546359853355,53.9643929373151
23611,DE,Bad Schwartau,10.7006226696143,53.9294692105334
23617,DE,Stockelsdorf,10.6172737717173,53.9322539722831
23619,DE,Zarpen,10.5217879092819,53.8802819869641
23623,DE,Ahrensbök,10.5652924032495,54.0038527646668
23626,DE,Ratekau,10.7704133923903,53.9586206297874
23627,DE,Groß Grönau,10.7299944560451,53.785558990273
23628,DE,Krummesse,10.6658202043244,53.7744274480804
23629,DE,Scharbeutz,10.6642941627799,53.9942423101204
23669,DE,Timmendorfer Strand,10.7760456453368,53.9854519847315
23683,DE,Scharbeutz,10.7442675082424,54.0343484203802
23684,DE,Scharbeutz,10.6763186953057,54.0313773916354
23689,DE,Ratekau,10.7068973161749,53.9868394619924
23701,DE,Eutin,10.6480563733576,54.1156180613519
23714,DE,Malente,10.582547692771,54.193627177952
23715,DE,Bosau,10.5058670170228,54.0965758697143
23717,DE,Kasseedorf,10.7032352806531,54.1690353532362
23719,DE,Glasau,10.5233569650405,54.0500365489695
23730,DE,Neustadt in Holstein,10.8167181349035,54.1274944609059
23738,DE,Lensahn,10.8910427053475,54.2247225870564
23743,DE,Grömitz,10.9635991195068,54.1785319860834
23744,DE,Schönwalde am Bungsberg,10.7609944581992,54.2004436538399
23746,DE,Kellenhusen (Ostsee),11.0433536550903,54.1979285918959
23747,DE,Dahme,11.071562431725,54.2216663214709
23749,DE,Grube,11.0395254818165,54.2436568134137
23758,DE,Oldenburg in Holstein,10.855675431692,54.2971144752908
23769,DE,Burg auf Fehmarn,11.1437798015402,54.4657182401638
23774,DE,Heiligenhafen,10.966151826637,54.3679508856272
23775,DE,Großenbrode,11.0667066949602,54.3711342072541
23777,DE,Heringsdorf,11.0229890705892,54.2885516958064
23779,DE,Neukirchen,11.0306746474569,54.3286847574177
23795,DE,Bad Segeberg,10.3095152114455,53.9420726447217
23812,DE,Wahlstedt,10.1323629968329,53.9417770368841
23813,DE,Nehms,10.3286732413906,54.0206451248584
23815,DE,Geschendorf,10.464548268826,53.9264039455291
23816,DE,Leezen,10.2584498954693,53.8640989006714
23818,DE,Neuengörs,10.3895086298443,53.9011641526404
23820,DE,Pronstorf,10.4945252602986,53.9571227836156
23821,DE,Rohlstorf,10.3946669009247,53.9633781297539
23823,DE,Seedorf,10.4157273877238,54.051321709267
23824,DE,Tensfeld,10.3102052115453,54.0592338607792
23826,DE,Bark,10.1603894301924,53.8988517165081
23827,DE,Wensin,10.4031811729751,54.0012469050625
23829,DE,Wittenborn,10.2222320246051,53.9083852167994
23843,DE,Bad Oldesloe,10.3476142742317,53.8149902382234
23845,DE,Seth,10.2448576826357,53.8442603971157
23847,DE,Lasbek,10.4809930363062,53.7548553578526
23858,DE,Reinfeld (Holstein),10.4794523854682,53.8370470651859
23860,DE,Klein Wesenberg,10.5585638638026,53.8034495257823
23863,DE,Bargfeld-Stegen,10.1723471250045,53.7711435108183
23866,DE,Nahe,10.1282835146375,53.7975834339997
23867,DE,Sülfeld,10.2116359390831,53.8163959815281
23869,DE,Elmenhorst,10.2710422149722,53.7675755719678
23879,DE,Mölln,10.699400374176,53.6258911415095
23881,DE,Breitenfelde,10.6094478528356,53.6289924582298
23883,DE,Sterley,10.8074938188818,53.6068946673351
23896,DE,Nusse,10.5855888085425,53.6564967801789
23898,DE,Sandesneben,10.5395646125859,53.6933083475335
23899,DE,Gudow,10.773453151243,53.5532402320073
23909,DE,Ratzeburg,10.7586279893106,53.7091686951855
23911,DE,Ziethen,10.8200824663714,53.6853584048166
23919,DE,Berkenthin,10.6396501314581,53.7271729291318
23923,DE,Schönberg,10.8867731708885,53.8428439582286
23936,DE,Grevesmühlen,11.173072553712,53.849050769186
23942,DE,Dassow,10.9995354613539,53.9410342940473
23946,DE,Boltenhagen,11.1995656777738,53.9873905021458
23948,DE,Klütz,11.158277471198,53.9470072324087
23966,DE,Wismar,11.3606062657783,53.8429368361713
23968,DE,Wismar,11.35579225854,53.897452563332
23970,DE,Wismar,11.5427673738732,53.9063076850664
23972,DE,Dorf Mecklenburg,11.4958671464749,53.8404590363338
23974,DE,Neuburg-Steinhausen,11.5643680870095,53.9609856560147
23992,DE,Neukloster,11.6956520954896,53.8927835739067
23996,DE,Bad Kleinen,11.4264885022801,53.7945863222768
23999,DE,Insel Poel,11.4363725322214,53.9948301096442
24103,DE,Kiel,10.1309590421533,54.3257079732801
24105,DE,Kiel,10.1418400254263,54.3410770965457
24106,DE,Kiel,10.1167469407959,54.3626350523619
24107,DE,Kiel,10.0260867479369,54.3453979302245
24109,DE,Kiel,10.0482074782844,54.3204498802151
24111,DE,Kiel,10.0648498887699,54.3080853738286
24113,DE,Kiel,10.083939948296,54.289791919057
24114,DE,Kiel,10.1135070021859,54.3170021249899
24116,DE,Kiel,10.1094377503026,54.3302142683834
24118,DE,Kiel,10.115587079536,54.3447856864117
24119,DE,Kronshagen,10.0811365193086,54.3392658347676
24143,DE,Kiel,10.1477432073416,54.3117318895975
24145,DE,Kiel,10.1436105918289,54.2769286189106
24146,DE,Kiel,10.188930922614,54.2907300122498
24147,DE,Kiel,10.2014513650963,54.3055455572281
24148,DE,Kiel,10.1780244563135,54.3213472974635
24149,DE,Kiel,10.1911981885358,54.3366750037687
24159,DE,Kiel,10.1577035096861,54.3999730407006
24161,DE,Altenholz,10.1053996797824,54.3976650823174
24211,DE,Preetz,10.2829972409253,54.233459402442
24214,DE,Gettorf,9.95918301749154,54.4004068781546
24217,DE,Schönberg (Holstein),10.3673460220537,54.3967778497212
24220,DE,Flintbek,10.0811630751324,54.2375630269981
24223,DE,Raisdorf,10.2496629252128,54.2783374411134
24226,DE,Heikendorf,10.2172650731494,54.37026224436
24229,DE,Dänischenhagen,10.1080799753965,54.4539461178696
24232,DE,Schönkirchen,10.2670371570407,54.3215754640987
24235,DE,Laboe,10.2595925243935,54.4053945949039
24238,DE,Selent,10.4283663718888,54.2750073150637
24239,DE,Achterwehr,9.97961978654875,54.3042329886361
24241,DE,Blumenthal,10.0020939117113,54.2260214851202
24242,DE,Felde,9.92592022528456,54.3104373608782
24244,DE,Felm,10.0543947065249,54.3973711229832
24245,DE,Kirchbarkau,10.1564036976481,54.2173957507895
24247,DE,Mielkendorf,10.0183826645568,54.2859222449
24248,DE,Mönkeberg,10.1932712666084,54.3509570897669
24250,DE,Nettelsee,10.167477152082,54.1802127370122
24251,DE,Osdorf,10.0119500065847,54.4345183569934
24253,DE,Probsteierhagen,10.29072206532,54.3659772081245
24254,DE,Rumohr,10.0209555182304,54.2576841912682
24256,DE,Fargau-Pratjau,10.3646882605753,54.3302435300887
24257,DE,Hohenfelde,10.4660245062803,54.3640859942058
24259,DE,Westensee,9.90364287668828,54.277551903447
24306,DE,Plön,10.4289997964755,54.1636506201429
24321,DE,Lütjenburg,10.5522828409854,54.3071333684961
24326,DE,Ascheberg (Holstein),10.3321588573182,54.1251453912215
24327,DE,Blekendorf,10.660307805809,54.2679000974175
24329,DE,Grebin,10.5085739832021,54.2211357298064
24340,DE,Eckernförde,9.8241262841782,54.4643114249795
24351,DE,Damp,9.93759389869135,54.5835766444091
24354,DE,Rieseby,9.79943309731473,54.536938623787
24357,DE,Fleckeby,9.69457800128561,54.472819305892
24358,DE,Ascheffel,9.69337967752207,54.4274087135496
24360,DE,Barkelsby,9.87341814108374,54.4979736531409
24361,DE,Groß Wittensee,9.7586152958799,54.4038695675922
24363,DE,Holtsee,9.86515681580265,54.4050020679505
24364,DE,Holzdorf,9.90590814538252,54.5586030998421
24366,DE,Loose,9.88550368436323,54.5243749535997
24367,DE,Osterby,9.75586333896198,54.449864105322
24369,DE,Waabs,9.96646164725404,54.5310639036959
24376,DE,Kappeln,9.94428052325845,54.6753408517072
24392,DE,Süderbrarup,9.79894462660151,54.6362395918094
24395,DE,Gelting,9.89663108764888,54.7458025206169
24398,DE,Dörphof,9.9796182490071,54.6172489233838
24399,DE,Arnis,9.92324760286494,54.6336633638216
24401,DE,Böel,9.70184784451019,54.6493151726517
24402,DE,Esgrus,9.8074293368946,54.7126014469422
24404,DE,Maasholm,9.99678391462726,54.698694063957
24405,DE,Mohrkirch,9.71601266250998,54.6797029652357
24407,DE,Rabenkirchen-Faulück,9.86105354491077,54.65422318969
24409,DE,Stoltebüll,9.86701934349631,54.6949516186138
24534,DE,Neumünster,9.98030708389823,54.0776199651273
24536,DE,Neumünster,10.005083333079,54.1130669308579
24537,DE,Neumünster,9.95286112368095,54.0896451635079
24539,DE,Neumünster,9.99208809945841,54.0495221143546
24558,DE,Henstedt-Ulzburg,10.0267894743042,53.7845820658832
24568,DE,Kaltenkirchen,9.95271421767183,53.8433736126901
24576,DE,Bad Bramstedt,9.87228468511429,53.9181337492977
24582,DE,Bordesholm,10.0446652150528,54.1760937111214
24589,DE,Nortorf,9.873026498546,54.1822243338057
24594,DE,Hohenwestedt,9.6783435169648,54.1018393936226
24598,DE,Boostedt,10.0514127278145,53.9921382485026
24601,DE,Wankendorf,10.2174409522016,54.1260756323459
24610,DE,Trappenkamp,10.176323418482,54.0493226622168
24613,DE,Aukrug,9.78525478263449,54.080444260993
24616,DE,Brokstedt,9.82840493644667,54.0006747862378
24619,DE,Bornhöved,10.1962303147627,54.0680418719533
24620,DE,Bönebüttel,10.0632197516826,54.0772004926033
24622,DE,Gnutz,9.82161994610179,54.1354462151579
24623,DE,Großenaspe,9.97103924642958,53.9802469186049
24625,DE,Großharrie,10.0652041410036,54.1338801710818
24626,DE,Groß Kummerfeld,10.0876667575151,54.037995114653
24628,DE,Hartenholm,10.0668910887541,53.8949406654957
24629,DE,Kisdorf,10.0421000011962,53.8152233050091
24631,DE,Langwedel,9.93215046581184,54.2227001212715
24632,DE,Lentföhrden,9.86260711181215,53.8681243760975
24634,DE,Padenstedt,9.89371589146681,54.0340084318644
24635,DE,Rickling,10.191468998479,54.0065028322875
24637,DE,Schillsdorf,10.124817900242,54.1173772271014
24638,DE,Schmalensee,10.2792407430287,54.0842830055238
24640,DE,Schmalfeld,9.99252680194476,53.8984606938404
24641,DE,Sievershütten,10.104671559211,53.8503810730723
24643,DE,Struvenhütten,10.0587697992802,53.8677872877359
24644,DE,Timmaspe,9.9131056158559,54.13339061538
24646,DE,Warder,9.88375685849556,54.217055326244
24647,DE,Wasbek,9.88298649039089,54.0749365317207
24649,DE,Wiemersdorf,9.90251363362441,53.9613508894925
24768,DE,Rendsburg,9.6539398950301,54.3044517583135
24782,DE,Büdelsdorf,9.67168387122928,54.3285542024888
24783,DE,Osterrönfeld,9.70975257424509,54.2802797266832
24784,DE,Westerrönfeld,9.65491556725693,54.2747555059646
24787,DE,Fockbek,9.58480983973599,54.3117505999081
24790,DE,Schacht-Audorf,9.76114953192131,54.3084641487768
24791,DE,Alt Duvenstedt,9.64406734057322,54.3589197990805
24793,DE,Bargstedt,9.75834874989211,54.1802622436602
24794,DE,Borgstedt,9.72951230245728,54.356782431021
24796,DE,Bredenbek,9.85530881179577,54.3345871744998
24797,DE,Breiholz,9.53567653348885,54.204745112379
24799,DE,Meggerdorf,9.40297709619913,54.3324228710148
24800,DE,Elsdorf-Westermühlen,9.52889926526439,54.2647554847572
24802,DE,Emkendorf,9.8136730160829,54.2475409659685
24803,DE,Erfde,9.3273304066018,54.3119006072232
24805,DE,Hamdorf,9.48929749665242,54.2302756424957
24806,DE,Hohn,9.49425648326293,54.3072122510727
24808,DE,Jevenstedt,9.68058521798672,54.2276544884161
24809,DE,Nübbel,9.5949712725324,54.2685012557269
24811,DE,Owschlag,9.61055277087657,54.4048745029204
24813,DE,Schülp bei Rendsburg,9.6217369917214,54.2504349811495
24814,DE,Sehestedt,9.8234715147447,54.3710765438278
24816,DE,Hamweddel,9.65640655264184,54.1786387197101
24817,DE,Tetenhusen,9.47804230635912,54.3601231156316
24819,DE,Todenbüttel,9.57649943584062,54.1589602330607
24837,DE,Schleswig,9.55976889839233,54.5216256187089
24848,DE,Kropp,9.46990392058389,54.4085735338722
24850,DE,Schuby,9.46589926828669,54.5240567094646
24852,DE,Eggebek,9.35472653295444,54.6099554142466
24855,DE,Jübek,9.41937302843224,54.577518575932
24857,DE,Fahrdorf,9.62346570984478,54.4958811133859
24860,DE,Böklund,9.56408763338467,54.6233171509428
24861,DE,Bergenhusen,9.31015480678126,54.3777922631772
24863,DE,Börm,9.37613707261635,54.410603640263
24864,DE,Brodersby,9.70189147269789,54.541204325419
24866,DE,Busdorf,9.54885269439798,54.490352622497
24867,DE,Dannewerk,9.48992378018441,54.4773001442914
24869,DE,Dörpstedt,9.35925054725779,54.4350260861096
24870,DE,Ellingstedt,9.40874671510245,54.4786685564713
24872,DE,Groß Rheide,9.44261183984864,54.4421406917431
24873,DE,Havetoft,9.51259823200633,54.6581012346368
24875,DE,Havetoftloit,9.55907964270549,54.6630944985802
24876,DE,Hollingstedt,9.3536592986113,54.4697695628959
24878,DE,Jagel,9.55027723683233,54.4530699574869
24879,DE,Neuberend,9.50569197232114,54.5736643720918
24881,DE,Nübel,9.57528965083921,54.5629460864614
24882,DE,Schaalby,9.63789356442748,54.5427107495688
24884,DE,Selk,9.59666077863036,54.4676382410521
24885,DE,Sieverstedt,9.46133685434153,54.6440834575798
24887,DE,Silberstedt,9.36276087678081,54.5358289287876
24888,DE,Steinfeld,9.72389324629855,54.6148968370629
24890,DE,Stolk,9.54344991931737,54.595111615462
24891,DE,Struxdorf,9.6367859519078,54.6405114319092
24893,DE,Taarstedt,9.69002200346627,54.5745584821063
24894,DE,Tolk,9.65311206919862,54.596954251185
24896,DE,Treia,9.31423620079866,54.518882739328
24897,DE,Ulsnis,9.75035846856299,54.5762572263241
24899,DE,Wohlde,9.30282263982331,54.4075669320393
24937,DE,Flensburg,9.43021575122248,54.7858773785359
24939,DE,Flensburg,9.41899340069624,54.8043997574546
24941,DE,Flensburg,9.40785257480795,54.7588113844335
24943,DE,Flensburg,9.47314194485835,54.7821684906184
24944,DE,Flensburg,9.47723542562195,54.8126692443949
24955,DE,Harrislee,9.38463772986717,54.8134612118321
24960,DE,Glücksburg (Ostsee),9.56439157213244,54.8346546715536
